[{"code":"AAC","name":"Al Arish, Egypt","cityCode":"AAC","city":"El Arish","countryCode":"EG","timezone":"2","latitude":31.0732994,"longitude":33.8358002,"countryName":"Egypt"},{"code":"AAE","name":"Annaba, Algeria","cityCode":"AAE","city":"Annaba","countryCode":"DZ","timezone":"1","latitude":36.8222008,"longitude":7.8091698,"countryName":"Algeria"},{"code":"AAL","name":"Alborg, Denmark","cityCode":"AAL","city":"Aalborg","countryCode":"DK","timezone":"2","latitude":57.0927589,"longitude":9.8492432,"countryName":"Denmark"},{"code":"AAN","name":"Al Ain, United Arab Emirates","cityCode":"AAN","city":"AlAin","countryCode":"AE","timezone":"4","latitude":24.2616997,"longitude":55.6091995,"countryName":"United Arab Emirates"},{"code":"AAR","name":"Aarhus, Denmark","cityCode":"AAR","city":"Aarhus","countryCode":"DK","timezone":"2","latitude":56.2999992,"longitude":10.6190004,"countryName":"Denmark"},{"code":"ABD","name":"Abadan, Iran","cityCode":"ABD","city":"Abadan","countryCode":"IR","timezone":"3","latitude":30.3710995,"longitude":48.2282982,"countryName":"Iran"},{"code":"ABE","name":"Allentown, PA, USA","cityCode":"ABE","city":"Allentown","countryCode":"US","timezone":"-4","latitude":40.6520996,"longitude":-75.4408035,"countryName":"United States"},{"code":"ABI","name":"Abilene, TX, USA","cityCode":"ABI","city":"Abilene","countryCode":"US","timezone":"-5","latitude":32.4113007,"longitude":-99.6819,"countryName":"United States"},{"code":"ABJ","name":"Abidjan, Ivory Coast","cityCode":"ABJ","city":"Abidjan","countryCode":"CI","timezone":"0","latitude":5.2613902,"longitude":-3.92629,"countryName":"Cote d'Ivoire (Ivory Coast)"},{"code":"ABM","name":"Bamaga, Australia","cityCode":"ABM","city":"Amberley","countryCode":"AU","timezone":"10","latitude":-10.9508,"longitude":142.459,"countryName":"Australia"},{"code":"ABQ","name":"Albuquerque, NM, USA","cityCode":"ABQ","city":"Albuquerque","countryCode":"US","timezone":"-6","latitude":35.0401993,"longitude":-106.6090012,"countryName":"United States"},{"code":"ABR","name":"Aberdeen, SD, USA","cityCode":"ABR","city":"Aberdeen","countryCode":"US","timezone":"-5","latitude":45.4491005,"longitude":-98.4217987,"countryName":"United States"},{"code":"ABS","name":"Abu Simbel, Egypt","cityCode":"ABS","city":"Abu Simbel","countryCode":"EG","timezone":"2","latitude":22.3759995,"longitude":31.6117001,"countryName":"Egypt"},{"code":"ABT","name":"Al Baha, Saudi Arabia","cityCode":"ABT","city":"El-baha","countryCode":"SA","timezone":"3","latitude":0.0,"longitude":0.0,"countryName":"Saudi Arabia"},{"code":"ABU","name":"Haliwen, Atambua","cityCode":"ABU","city":"Atambua","countryCode":"ID","timezone":"8","latitude":-9.0730495,"longitude":124.9049988,"countryName":"Indonesia"},{"code":"ABV","name":"Abuja International, Nigeria","cityCode":"ABV","city":"Abuja","countryCode":"NG","timezone":"1","latitude":9.0067902,"longitude":7.2631698,"countryName":"Nigeria"},{"code":"ABX","name":"Albury, Australia","cityCode":"ABX","city":"Albury","countryCode":"AU","timezone":"11","latitude":-36.0677986,"longitude":146.9579926,"countryName":"Australia"},{"code":"ABY","name":"Albany, GA, USA","cityCode":"ABY","city":"Albany","countryCode":"US","timezone":"-4","latitude":31.5354996,"longitude":-84.1945038,"countryName":"United States"},{"code":"ABZ","name":"Aberdeen, United Kingdom","cityCode":"ABZ","city":"Aberdeen","countryCode":"GB","timezone":"1","latitude":57.2019005,"longitude":-2.1977799,"countryName":"United Kingdom"},{"code":"ACA","name":"Acapulco, Mexico","cityCode":"ACA","city":"Acapulco","countryCode":"MX","timezone":"-5","latitude":16.7570992,"longitude":-99.7539978,"countryName":"Mexico"},{"code":"ACC","name":"Accra, Ghana","cityCode":"ACC","city":"Accra","countryCode":"GH","timezone":"0","latitude":5.6051898,"longitude":-0.166786,"countryName":"Ghana"},{"code":"ACE","name":"Arrecife/Lanzarote, Spain","cityCode":"ACE","city":"Las Palmas","countryCode":"ES","timezone":"1","latitude":28.9454994,"longitude":-13.6051998,"countryName":"Spain"},{"code":"ACH","name":"Altenrhein, Switzerland","cityCode":"ACH","city":"Altenrhein","countryCode":"CH","timezone":"2","latitude":47.4850006,"longitude":9.56077,"countryName":"Switzerland"},{"code":"ACK","name":"Nantucket, MA, USA","cityCode":"ACK","city":"Nantucket","countryCode":"US","timezone":"-4","latitude":41.2531014,"longitude":-70.0602036,"countryName":"United States"},{"code":"ACP","name":"Maragheh, Iran","cityCode":"ACP","city":"Maragheh","countryCode":"IR","timezone":"3","latitude":0.0,"longitude":0.0,"countryName":"Iran"},{"code":"ACT","name":"Waco, TX, USA","cityCode":"ACT","city":"Waco","countryCode":"US","timezone":"-5","latitude":31.6112995,"longitude":-97.2304993,"countryName":"United States"},{"code":"ACV","name":"Eureka, CA, USA","cityCode":"ACV","city":"Arcata CA","countryCode":"US","timezone":"-7","latitude":40.9780998,"longitude":-124.1090012,"countryName":"United States"},{"code":"ACY","name":"Atlantic City, NJ, USA","cityCode":"ACY","city":"Atlantic City","countryCode":"US","timezone":"-4","latitude":39.4575996,"longitude":-74.5772018,"countryName":"United States"},{"code":"ACZ","name":"Zabol, Iran","cityCode":"ACZ","city":"Zabol, Iran","countryCode":"IR","timezone":"3","latitude":0.0,"longitude":0.0,"countryName":"Iran"},{"code":"ADA","name":"Adana, Turkey","cityCode":"ADA","city":"Adana","countryCode":"TR","timezone":"3","latitude":36.9822006,"longitude":35.2803993,"countryName":"Turkey"},{"code":"ADD","name":"Addis Ababa, Ethiopia","cityCode":"ADD","city":"Addis Ababa","countryCode":"ET","timezone":"3","latitude":8.97789,"longitude":38.7993012,"countryName":"Ethiopia"},{"code":"ADE","name":"Aden, Yemen","cityCode":"ADE","city":"Aden","countryCode":"YE","timezone":"3","latitude":12.8295002,"longitude":45.028801,"countryName":"Yemen"},{"code":"ADJ","name":"Amman, Civil   Marka Airport, Jordan","cityCode":"ADJ","city":"Amman","countryCode":"JO","timezone":"3","latitude":31.9727001,"longitude":35.9916,"countryName":"Jordan"},{"code":"ADL","name":"Adelaide, Australia","cityCode":"ADL","city":"Adelaide","countryCode":"AU","timezone":"10","latitude":-34.9449997,"longitude":138.5310059,"countryName":"Australia"},{"code":"ADQ","name":"Kodiak, AK, USA","cityCode":"ADQ","city":"Kodiak","countryCode":"US","timezone":"-8","latitude":57.75,"longitude":-152.4940033,"countryName":"United States"},{"code":"ADU","name":"Ardabil, Iran","cityCode":"ADU","city":"Ardabil","countryCode":"IR","timezone":"3","latitude":0.0,"longitude":0.0,"countryName":"Iran"},{"code":"ADX","name":"Aktyubinsk, Kazakhstan","cityCode":"ADX","city":"Leuchars","countryCode":"KZ","timezone":"0","latitude":56.372889,"longitude":-2.868444,"countryName":"Kazakhstan"},{"code":"ADY","name":"Alldays, South Africa","cityCode":"ADY","city":"Alldays","countryCode":"ZA","timezone":"2","latitude":-22.678889,"longitude":29.055278,"countryName":"South Africa"},{"code":"ADZ","name":"San Andres, Colombia","cityCode":"ADZ","city":"San Andres Island","countryCode":"CO","timezone":"-5","latitude":12.5836,"longitude":-81.7112,"countryName":"Colombia"},{"code":"AEG","name":"Aek Godang, Tapanuli Selatan","cityCode":"AEG","city":"AekGodang","countryCode":"ID","latitude":0.0,"longitude":0.0,"countryName":"Indonesia"},{"code":"AEH","name":"Abeche, Chad","cityCode":"AEH","city":"Abeche","countryCode":"TD","timezone":"1","latitude":13.8470001,"longitude":20.8442993,"countryName":"Chad"},{"code":"AEP","name":"Buenos Aires Jorge Newbery, Argentina","cityCode":"AEP","city":"Buenos Aires","countryCode":"AR","timezone":"-3","latitude":-34.5592,"longitude":-58.4156,"countryName":"Argentina"},{"code":"AER","name":"Adler/Sochi, Russian","cityCode":"AER","city":"Sochi","countryCode":"RU","timezone":"3","latitude":43.4499016,"longitude":39.9566002,"countryName":"Russia"},{"code":"AES","name":"Alesund, Norway","cityCode":"AES","city":"Alesund","countryCode":"NO","timezone":"2","latitude":62.5625,"longitude":6.1197,"countryName":"Norway"},{"code":"AEU","name":"Abu Musa Island, Iran","cityCode":"AEU","city":"Abu Musa Island, Iran","countryCode":"IR","timezone":"3","latitude":0.0,"longitude":0.0,"countryName":"Iran"},{"code":"AFZ","name":"Sabzevar, Iran","cityCode":"AFZ","city":"Sabzevar","countryCode":"IR","timezone":"3","latitude":0.0,"longitude":0.0,"countryName":"Iran"},{"code":"AGA","name":"Agadir, Morocco","cityCode":"AGA","city":"Agadir","countryCode":"MA","timezone":"1","latitude":30.3250008,"longitude":-9.4130697,"countryName":"Morocco"},{"code":"AGB","name":"Augsburg, Germany","cityCode":"AGB","city":"Augsburg","countryCode":"DE","timezone":"2","latitude":48.425278,"longitude":10.931667,"countryName":"Germany"},{"code":"AGP","name":"Malaga, Spain","cityCode":"AGP","city":"Malaga","countryCode":"ES","timezone":"2","latitude":36.6749001,"longitude":-4.4991102,"countryName":"Spain"},{"code":"AGR","name":"Agra, India","cityCode":"AGR","city":"Agra","countryCode":"IN","timezone":"5","latitude":0.0,"longitude":0.0,"countryName":"India"},{"code":"AGS","name":"Augusta, GA, USA","cityCode":"AGS","city":"Bush Field","countryCode":"US","timezone":"-4","latitude":33.3698998,"longitude":-81.9645004,"countryName":"United States"},{"code":"AGU","name":"Aguascaliente, Mexico","cityCode":"AGU","city":"Aguascalientes","countryCode":"MX","timezone":"-5","latitude":21.705601,"longitude":-102.318001,"countryName":"Mexico"},{"code":"AGX","name":"Agatti Island, India","cityCode":"AGX","city":"Agatti Island","countryCode":"IN","timezone":"5","latitude":0.0,"longitude":0.0,"countryName":"India"},{"code":"AGZ","name":"Aggeneys, South Africa","cityCode":"AGZ","city":"Aggeneys","countryCode":"ZA","timezone":"2","latitude":-29.281767,"longitude":18.813869,"countryName":"South Africa"},{"code":"AHB","name":"Khamis Mushayat, Saudi Arabia","cityCode":"AHB","city":"Abha","countryCode":"SA","timezone":"3","latitude":18.2404003,"longitude":42.656601,"countryName":"Saudi Arabia"},{"code":"AHN","name":"Athens, GA, USA","cityCode":"AHN","city":"Athens","countryCode":"US","timezone":"-4","latitude":33.9486008,"longitude":-83.3263016,"countryName":"United States"},{"code":"AHO","name":"Alghero Sassari, Italy","cityCode":"AHO","city":"Alghero","countryCode":"IT","timezone":"2","latitude":40.632099,"longitude":8.29077,"countryName":"Italy"},{"code":"AHU","name":"Al Hoceima, Morocco","cityCode":"AHU","city":"Al Hociema","countryCode":"MA","timezone":"1","latitude":35.1771011,"longitude":-3.83952,"countryName":"Morocco"},{"code":"AIP","name":"Adampur, India","cityCode":"AIP","city":"Adampur","countryCode":"IN","timezone":"5","latitude":0.0,"longitude":0.0,"countryName":"India"},{"code":"AJA","name":"Ajaccio, France","cityCode":"AJA","city":"Ajaccio","countryCode":"FR","timezone":"2","latitude":41.9235992,"longitude":8.8029203,"countryName":"France"},{"code":"AJF","name":"Jouf, Saudi Arabia","cityCode":"AJF","city":"Al-Jawf","countryCode":"SA","timezone":"3","latitude":0.0,"longitude":0.0,"countryName":"Saudi Arabia"},{"code":"AJK","name":"Araak, Iran","cityCode":"AJK","city":"Araak, Iran","countryCode":"IR","timezone":"3","latitude":0.0,"longitude":0.0,"countryName":"Iran"},{"code":"AJL","name":"Aizawl, India","cityCode":"AJL","city":"Aizwal","countryCode":"IN","timezone":"5","latitude":0.0,"longitude":0.0,"countryName":"India"},{"code":"AJN","name":"Anjouan, Comoros (Comores)","cityCode":"AJN","city":"Anjouan","countryCode":"KM","timezone":"3","latitude":-12.1316996,"longitude":44.4303017,"countryName":"Comoros"},{"code":"AJU","name":"Aracaju, Brazil","cityCode":"AJU","city":"Aracaju","countryCode":"BR","timezone":"-2","latitude":-10.9840002,"longitude":-37.0703011,"countryName":"Brazil"},{"code":"AJY","name":"Agades, Niger","cityCode":"AJY","city":"Agadez","countryCode":"NE","timezone":"1","latitude":16.9659996,"longitude":8.0001097,"countryName":"Niger"},{"code":"AKH","name":"Al Khar, Saudi Arabia","cityCode":"AKH","city":"Al Khar","countryCode":"SA","timezone":"3","latitude":0.0,"longitude":0.0,"countryName":"Saudi Arabia"},{"code":"AKL","name":"Auckland, New Zealand","cityCode":"AKL","city":"Auckland","countryCode":"NZ","timezone":"13","latitude":-37.0080986,"longitude":174.7920074,"countryName":"New Zealand"},{"code":"AKN","name":"King Salomon, AK, USA","cityCode":"AKN","city":"King Salmon","countryCode":"US","timezone":"-8","latitude":58.6767998,"longitude":-156.6490021,"countryName":"United States"},{"code":"AKT","name":"Akrotiri   RAF, Cyprus","cityCode":"AKT","city":"Akrotiri","countryCode":"GB","timezone":"3","latitude":34.590401,"longitude":32.9879,"countryName":"United Kingdom"},{"code":"AKX","name":"Aktau Airport, Kazakhstan","cityCode":"AKX","city":"Aktyubinsk","countryCode":"KZ","timezone":"6","latitude":0.0,"longitude":0.0,"countryName":"Kazakhstan"},{"code":"AKY","name":"Sittwe Airport, Myanmar","cityCode":"AKY","city":"Sittwe","countryCode":"MM","timezone":"0","latitude":0.0,"longitude":0.0,"countryName":"Myanmar (Burma)"},{"code":"ALA","name":"Almaty International Airport, Kazakhstan","cityCode":"ALA","city":"Alma-ata","countryCode":"KZ","timezone":"6","latitude":43.3521004,"longitude":77.0404968,"countryName":"Kazakhstan"},{"code":"ALB","name":"Albany, NY, USA","cityCode":"ALB","city":"Albany","countryCode":"US","timezone":"-4","latitude":42.7482987,"longitude":-73.8016968,"countryName":"United States"},{"code":"ALC","name":"Alicante, Spain","cityCode":"ALC","city":"Alicante","countryCode":"ES","timezone":"2","latitude":38.2821999,"longitude":-0.558156,"countryName":"Spain"},{"code":"ALF","name":"Alta, Norway","cityCode":"ALF","city":"Alta","countryCode":"NO","timezone":"2","latitude":69.9760971,"longitude":23.3717003,"countryName":"Norway"},{"code":"ALG","name":"Algiers, Algeria","cityCode":"ALG","city":"Algier","countryCode":"DZ","timezone":"1","latitude":36.6910019,"longitude":3.21541,"countryName":"Algeria"},{"code":"ALH","name":"Albany, Australia","cityCode":"ALH","city":"Albany","countryCode":"AU","timezone":"8","latitude":-34.9432983,"longitude":117.8089981,"countryName":"Australia"},{"code":"ALJ","name":"Alexander Bay, South Africa","cityCode":"ALJ","city":"Alexander Bay","countryCode":"ZA","timezone":"2","latitude":-28.575001,"longitude":16.533333,"countryName":"South Africa"},{"code":"ALO","name":"Waterloo, IA, USA","cityCode":"ALO","city":"Waterloo","countryCode":"US","timezone":"-5","latitude":42.5570984,"longitude":-92.4002991,"countryName":"United States"},{"code":"ALP","name":"Aleppo, Syria","cityCode":"ALP","city":"Aleppo","countryCode":"SY","timezone":"3","latitude":36.1806984,"longitude":37.2243996,"countryName":"Syria"},{"code":"ALW","name":"Walla Walla, WA, USA","cityCode":"ALW","city":"Walla Walla","countryCode":"US","timezone":"-7","latitude":46.0948982,"longitude":-118.288002,"countryName":"United States"},{"code":"ALY","name":"Alexandria, El Nhouza Airport, Egypt","cityCode":"ALY","city":"Alexandria","countryCode":"EG","timezone":"2","latitude":31.1839008,"longitude":29.9489002,"countryName":"Egypt"},{"code":"AMA","name":"Amarillo, TX, USA","cityCode":"AMA","city":"Amarillo","countryCode":"US","timezone":"-5","latitude":35.2193985,"longitude":-101.7060013,"countryName":"United States"},{"code":"AMD","name":"Sardar Vallabhbhai Patel International Airport, India","cityCode":"AMD","city":"Ahmedabad","countryCode":"IN","timezone":"0","latitude":23.077242,"longitude":72.63465,"countryName":"India"},{"code":"AMI","name":"Selaparang Airport, Mataram","cityCode":"AMI","city":"Mataram","countryCode":"ID","latitude":0.0,"longitude":0.0,"countryName":"Indonesia"},{"code":"AMM","name":"Amman, Queen Alia Intl, Jordan","cityCode":"AMM","city":"Amman","countryCode":"JO","timezone":"3","latitude":31.7226009,"longitude":35.9931984,"countryName":"Jordan"},{"code":"AMQ","name":"Pattimura, Ambon","cityCode":"AMQ","city":"Ambon","countryCode":"ID","timezone":"9","latitude":-3.710264,"longitude":128.089136,"countryName":"Indonesia"},{"code":"AMS","name":"Schiphol Amsterdam, Netherland","cityCode":"AMS","city":"Amsterdam","countryCode":"NL","timezone":"0","latitude":52.308613,"longitude":4.763889,"countryName":"Netherlands"},{"code":"ANB","name":"Anniston, AL, USA","cityCode":"ANB","city":"Anniston","countryCode":"US","timezone":"-6","latitude":33.588167,"longitude":-85.858111,"countryName":"United States"},{"code":"ANC","name":"Anchorage, AK, USA","cityCode":"ANC","city":"Anchorage","countryCode":"US","timezone":"-8","latitude":61.1744003,"longitude":-149.9960022,"countryName":"United States"},{"code":"ANK","name":"Ankara, Turkey","cityCode":"ANK","city":"Ankara","countryCode":"TR","timezone":"2","latitude":39.949831,"longitude":32.688622,"countryName":"Turkey"},{"code":"ANR","name":"Antwerp, Belgium","cityCode":"ANR","city":"Antwerp","countryCode":"BE","timezone":"2","latitude":51.1893997,"longitude":4.4602799,"countryName":"Belgium"},{"code":"ANU","name":"Antigua, Antigua","cityCode":"ANU","city":"Antigua","countryCode":"AG","timezone":"-4","latitude":17.1367,"longitude":-61.792702,"countryName":"Antigua and Barbuda"},{"code":"AOI","name":"Ancona, Italy","cityCode":"AOI","city":"Ancona","countryCode":"IT","timezone":"2","latitude":43.616299,"longitude":13.3623,"countryName":"Italy"},{"code":"AOJ","name":"Aomori, Japan","cityCode":"AOJ","city":"Aomori","countryCode":"JP","timezone":"9","latitude":40.7346993,"longitude":140.6909943,"countryName":"Japan"},{"code":"AOK","name":"Karpathos, Greece","cityCode":"AOK","city":"Karpathos","countryCode":"GR","timezone":"3","latitude":35.4213982,"longitude":27.1459999,"countryName":"Greece"},{"code":"AOO","name":"Altoona, PA, USA","cityCode":"AOO","city":"Altoona","countryCode":"US","timezone":"-4","latitude":40.2963982,"longitude":-78.3199997,"countryName":"United States"},{"code":"AOR","name":"Alor Setar, Malaysia","cityCode":"AOR","city":"Alor Setar","countryCode":"MY","timezone":"8","latitude":6.189667,"longitude":100.398183,"countryName":"Malaysia"},{"code":"APF","name":"Naples, FL, USA","cityCode":"APF","city":"Naples","countryCode":"US","timezone":"-5","latitude":26.152619,"longitude":-81.775294,"countryName":"United States"},{"code":"APW","name":"Apia, Samoa","cityCode":"APW","city":"Faleolo","countryCode":"WS","timezone":"14","latitude":-13.8299999,"longitude":-172.0079956,"countryName":"Samoa"},{"code":"AQI","name":"Qaisumah, Saudi Arabia","cityCode":"AQI","city":"Hafr Al-batin","countryCode":"SA","timezone":"3","latitude":0.0,"longitude":0.0,"countryName":"Saudi Arabia"},{"code":"AQJ","name":"Aqaba, Jordan","cityCode":"AQJ","city":"Aqaba","countryCode":"JO","timezone":"3","latitude":29.6116009,"longitude":35.0181007,"countryName":"Jordan"},{"code":"ARB","name":"Ann Arbor, MI, USA","cityCode":"ARB","city":"Ann Arbor","countryCode":"US","timezone":"-5","latitude":42.132274,"longitude":-83.444418,"countryName":"United States"},{"code":"ARD","name":"Mali Airport, Indonesia","cityCode":"ARD","city":"Alor","countryCode":"ID","latitude":0.0,"longitude":0.0,"countryName":"Indonesia"},{"code":"ARH","name":"Arkhangelsk, Russian","cityCode":"ARH","city":"Arkhangelsk","countryCode":"RU","timezone":"3","latitude":64.6003037,"longitude":40.7167015,"countryName":"Russia"},{"code":"ARK","name":"Arusha, Tanzania","cityCode":"ARK","city":"Arusha","countryCode":"TZ","timezone":"3","latitude":-3.36779,"longitude":36.6333008,"countryName":"Tanzania"},{"code":"ARN","name":"Stockholm   Arlanda, Sweden","cityCode":"ARN","city":"Stockholm","countryCode":"SE","timezone":"2","latitude":59.6519013,"longitude":17.9186001,"countryName":"Sweden"},{"code":"ASB","name":"Ashgabat, Ashkhabat, Turkmenistan","cityCode":"ASB","city":"Ashkhabad","countryCode":"TM","timezone":"5","latitude":37.9868012,"longitude":58.3610001,"countryName":"Turkmenistan"},{"code":"ASE","name":"Aspen Snowmass, CO, USA","cityCode":"ASE","city":"Aspen","countryCode":"US","timezone":"-6","latitude":39.2232018,"longitude":-106.8690033,"countryName":"United States"},{"code":"ASJ","name":"Amami, Japan","cityCode":"ASJ","city":"Amami","countryCode":"JP","timezone":"9","latitude":28.4305992,"longitude":129.7129974,"countryName":"Japan"},{"code":"ASK","name":"Yamoussoukro, Ivory Coast","cityCode":"ASK","city":"Yamoussoukro","countryCode":"CI","timezone":"0","latitude":6.903167,"longitude":-5.365581,"countryName":"Cote d'Ivoire (Ivory Coast)"},{"code":"ASP","name":"Alice Springs, Australia","cityCode":"ASP","city":"Alice Springs","countryCode":"AU","timezone":"9","latitude":-23.8066998,"longitude":133.9019928,"countryName":"Australia"},{"code":"ASU","name":"Asuncion, Paraguay","cityCode":"ASU","city":"Asuncion","countryCode":"PY","timezone":"-3","latitude":-25.2399998,"longitude":-57.5200005,"countryName":"Paraguay"},{"code":"ASW","name":"Aswan, Daraw Airport, Egypt","cityCode":"ASW","city":"Aswan","countryCode":"EG","timezone":"2","latitude":23.9643993,"longitude":32.8199997,"countryName":"Egypt"},{"code":"ATH","name":"Athens, Greece","cityCode":"ATH","city":"Athens","countryCode":"GR","timezone":"3","latitude":37.9364014,"longitude":23.9445,"countryName":"Greece"},{"code":"ATL","name":"Hartsfield Jackson Atlanta Intl","cityCode":"ATL","city":"Atlanta","countryCode":"US","timezone":"-5","latitude":33.636719,"longitude":-84.428067,"countryName":"United States"},{"code":"ATQ","name":"Amritsar, India","cityCode":"ATQ","city":"Amritsar","countryCode":"IN","timezone":"5","latitude":31.7096005,"longitude":74.7973023,"countryName":"India"},{"code":"ATW","name":"Appelton/Neenah/Menasha, WI, USA","cityCode":"ATW","city":"Appleton","countryCode":"US","timezone":"-6","latitude":44.257526,"longitude":-88.507576,"countryName":"United States"},{"code":"ATY","name":"Watertown, SD, USA","cityCode":"ATY","city":"Watertown","countryCode":"US","timezone":"-5","latitude":44.9140015,"longitude":-97.1547012,"countryName":"United States"},{"code":"ATZ","name":"Assiut, Egypt","cityCode":"ATZ","city":"Asyut","countryCode":"EG","timezone":"2","latitude":27.0464993,"longitude":31.0119991,"countryName":"Egypt"},{"code":"AUA","name":"Aruba, Aruba","cityCode":"AUA","city":"Oranjestad","countryCode":"AW","timezone":"-4","latitude":12.5014,"longitude":-70.0151978,"countryName":"Aruba"},{"code":"AUG","name":"Augusta, ME, USA","cityCode":"AUG","city":"Augusta","countryCode":"US","timezone":"-4","latitude":44.3205986,"longitude":-69.7973023,"countryName":"United States"},{"code":"AUH","name":"Abu Dhabi Intl, United Arab Emirates","cityCode":"AUH","city":"Abu Dhabi","countryCode":"AE","timezone":"0","latitude":24.432972,"longitude":54.651138,"countryName":"United Arab Emirates"},{"code":"AUR","name":"Aurillac, France","cityCode":"AUR","city":"Aurillac","countryCode":"FR","timezone":"2","latitude":44.8913994,"longitude":2.4219401,"countryName":"France"},{"code":"AUS","name":"Austin, TX, USA","cityCode":"AUS","city":"Austin","countryCode":"US","timezone":"-5","latitude":30.1945,"longitude":-97.669899,"countryName":"United States"},{"code":"AVL","name":"Asheville, NC, USA","cityCode":"AVL","city":"Asheville","countryCode":"US","timezone":"-4","latitude":35.4361992,"longitude":-82.5418015,"countryName":"United States"},{"code":"AVP","name":"Wilkes Barre/Scranton, PA, USA","cityCode":"AVP","city":"Scranton","countryCode":"US","timezone":"-4","latitude":41.338501,"longitude":-75.7233963,"countryName":"United States"},{"code":"AWZ","name":"Ahwaz, Iran","cityCode":"AWZ","city":"Ahwaz","countryCode":"IR","timezone":"3","latitude":0.0,"longitude":0.0,"countryName":"Iran"},{"code":"AXA","name":"Anguilla, Anguilla","cityCode":"AXA","city":"The Valley","countryCode":"AI","timezone":"-4","latitude":18.2047997,"longitude":-63.0550995,"countryName":"Anguilla"},{"code":"AXT","name":"Akita, Japan","cityCode":"AXT","city":"Akita","countryCode":"JP","timezone":"9","latitude":39.6156006,"longitude":140.2189941,"countryName":"Japan"},{"code":"AYQ","name":"Ayers Rock, Australia","cityCode":"AYQ","city":"Uluru","countryCode":"AU","timezone":"9","latitude":-25.1861,"longitude":130.975998,"countryName":"Australia"},{"code":"AYT","name":"Antalya, Turkey","cityCode":"AYT","city":"Antalya","countryCode":"TR","timezone":"3","latitude":36.898701,"longitude":30.800501,"countryName":"Turkey"},{"code":"AZD","name":"Yazd, Iran","cityCode":"AZD","city":"Yazd","countryCode":"IR","timezone":"3","latitude":0.0,"longitude":0.0,"countryName":"Iran"},{"code":"AZO","name":"Kalamazoo/Battle Creek, MI, USA","cityCode":"AZO","city":"Kalamazoo","countryCode":"US","timezone":"-4","latitude":42.2349014,"longitude":-85.5521011,"countryName":"United States"},{"code":"BAH","name":"Bahrain International Airport, Bahrain","cityCode":"BAH","city":"Bahrain","countryCode":"BH","timezone":"0","latitude":26.270834,"longitude":50.63361,"countryName":"Bahrain"},{"code":"BAK","name":"Heydar Aliyev International Airport, Azerbaijan","cityCode":"BAK","city":"Baku","countryCode":"AZ","timezone":"4","latitude":40.4675,"longitude":50.046667,"countryName":"Azerbaijan"},{"code":"BAQ","name":"Barranquilla, Colombia","cityCode":"BAQ","city":"Barranquilla","countryCode":"CO","timezone":"-5","latitude":10.8896,"longitude":-74.7808,"countryName":"Colombia"},{"code":"BBI","name":"Bhubaneswar Airport, India","cityCode":"BBI","city":"Bhubaneswar","countryCode":"IN","timezone":"5","latitude":20.2444,"longitude":85.8178024,"countryName":"India"},{"code":"BBN","name":"Bario, Malaysia","cityCode":"BBN","city":"Bario","countryCode":"MY","timezone":"8","latitude":0.0,"longitude":0.0,"countryName":"Malaysia"},{"code":"BBT","name":"Berberati, Central African Republic","cityCode":"BBT","city":"Berberati","countryCode":"CF","timezone":"1","latitude":4.221583,"longitude":15.786369,"countryName":"Central African Republic"},{"code":"BCD","name":"Bacolod, Philippines","cityCode":"BCD","city":"Bacolod","countryCode":"PH","timezone":"8","latitude":0.0,"longitude":0.0,"countryName":"Philippines"},{"code":"BSO","name":"Basco, Philippines","cityCode":"BCD","city":"Bacolod","countryCode":"PH","timezone":"8","latitude":0.0,"longitude":0.0,"countryName":"Philippines"},{"code":"BCN","name":"Barcelona, Spain","cityCode":"BCN","city":"Barcelona","countryCode":"ES","timezone":"0","latitude":41.297078,"longitude":2.078464,"countryName":"Spain"},{"code":"BDA","name":"Bermuda, Bermuda","cityCode":"BDA","city":"Bermuda","countryCode":"BM","timezone":"-3","latitude":32.3639984,"longitude":-64.6787033,"countryName":"Bermuda"},{"code":"BDB","name":"Bundaberg, Australia","cityCode":"BDB","city":"Bundaberg","countryCode":"AU","timezone":"10","latitude":-24.9039002,"longitude":152.3190002,"countryName":"Australia"},{"code":"BDH","name":"Bandar Lengeh, Iran","cityCode":"BDH","city":"Bandar Lengeh","countryCode":"IR","timezone":"3","latitude":0.0,"longitude":0.0,"countryName":"Iran"},{"code":"BDJ","name":"Syamsudin Noor, Banjarmasin","cityCode":"BDJ","city":"Banjarmasin","countryCode":"ID","timezone":"8","latitude":-3.442356,"longitude":114.762553,"countryName":"Indonesia"},{"code":"BDL","name":"Hartford, CT/Springfield, MA, USA","cityCode":"BDL","city":"Windsor Locks","countryCode":"US","timezone":"-4","latitude":41.9389,"longitude":-72.683197,"countryName":"United States"},{"code":"BDO","name":"Husein Sastranegara, Bandung","cityCode":"BDO","city":"Bandung","countryCode":"ID","timezone":"7","latitude":-6.900625,"longitude":107.576294,"countryName":"Indonesia"},{"code":"BDQ","name":"Vadodara, India","cityCode":"BDQ","city":"Baroda","countryCode":"IN","timezone":"5","latitude":22.3362007,"longitude":73.2263031,"countryName":"India"},{"code":"BDR","name":"Bridgeport, CT, USA","cityCode":"BDR","city":"Stratford","countryCode":"US","timezone":"-4","latitude":41.1635017,"longitude":-73.1261978,"countryName":"United States"},{"code":"BDS","name":"Brindisi, Italy","cityCode":"BDS","city":"Brindisi","countryCode":"IT","timezone":"2","latitude":40.6576,"longitude":17.947001,"countryName":"Italy"},{"code":"BDU","name":"Bardufoss, Norway","cityCode":"BDU","city":"Bardufoss","countryCode":"NO","timezone":"2","latitude":69.055801399999993,"longitude":18.5403996,"countryName":"Norway"},{"code":"BEG","name":"Belgrad (Beograd), Yugoslavia","cityCode":"BEG","city":"Belgrade","countryCode":"RS","timezone":"2","latitude":44.8184013,"longitude":20.3090992,"countryName":"Serbia"},{"code":"BEH","name":"Benton Harbour, MI, USA","cityCode":"BEH","city":"Benton Harbor","countryCode":"US","timezone":"-5","latitude":42.1285833,"longitude":-86.4285,"countryName":"United States"},{"code":"BEJ","name":"Kalimaru, Indonesia","cityCode":"BEJ","city":"Tanjung Redep","countryCode":"ID","timezone":"8","latitude":2.155497,"longitude":117.432256,"countryName":"Indonesia"},{"code":"BEL","name":"Belem, Brazil","cityCode":"BEL","city":"Belem","countryCode":"BR","timezone":"-3","latitude":-1.3792501,"longitude":-48.4762993,"countryName":"Brazil"},{"code":"BEN","name":"Bengasi, Libya","cityCode":"BEN","city":"Benghazi","countryCode":"LY","timezone":"2","latitude":32.0968018,"longitude":20.2695007,"countryName":"Libya"},{"code":"BEO","name":"Newcastle   Belmont, Australia","cityCode":"BEO","city":"Lake Macquarie","countryCode":"AU","timezone":"10","latitude":-33.066667,"longitude":151.648333,"countryName":"Australia"},{"code":"BER","name":"Berlin Tegel, Germany","cityCode":"BER","city":"Berlin","countryCode":"DE","timezone":"0","latitude":0.0,"longitude":0.0,"countryName":"Germany"},{"code":"BES","name":"Brest, France","cityCode":"BES","city":"Brest","countryCode":"FR","timezone":"2","latitude":48.4478989,"longitude":-4.41854,"countryName":"France"},{"code":"BET","name":"Bethel, AK, USA","cityCode":"BET","city":"Bethel","countryCode":"US","timezone":"-8","latitude":60.7798004,"longitude":-161.8379974,"countryName":"United States"},{"code":"BEW","name":"Beira, Mozambique","cityCode":"BEW","city":"Beira","countryCode":"MZ","timezone":"2","latitude":-19.7964001,"longitude":34.9076004,"countryName":"Mozambique"},{"code":"BEY","name":"Beirut Rafic Hariri International Airport, Lebanon","cityCode":"BEY","city":"Beirut","countryCode":"LB","timezone":"3","latitude":33.8209,"longitude":35.4883995,"countryName":"Lebanon"},{"code":"BFD","name":"Bradford/Warren, PA/Olean, NY, USA","cityCode":"BFD","city":"Bradford","countryCode":"US","timezone":"-4","latitude":41.8031006,"longitude":-78.6400986,"countryName":"United States"},{"code":"BFL","name":"Bakersfield, CA, USA","cityCode":"BFL","city":"Bakersfield","countryCode":"US","timezone":"-8","latitude":35.433598,"longitude":-119.05677,"countryName":"United States"},{"code":"BFN","name":"Bloemfontein, South Africa","cityCode":"BFN","city":"Bloemfontein","countryCode":"ZA","timezone":"2","latitude":-29.0926991,"longitude":26.3024006,"countryName":"South Africa"},{"code":"BFO","name":"Buffalo Range, Zimbabwe","cityCode":"BFO","city":"Chiredzi","countryCode":"ZW","timezone":"2","latitude":-21.008083,"longitude":31.57855,"countryName":"Zimbabwe"},{"code":"BFS","name":"Belfast International, United Kingdom","cityCode":"BFS","city":"Belfast","countryCode":"GB","timezone":"1","latitude":54.6575012,"longitude":-6.2158298,"countryName":"United Kingdom"},{"code":"BGA","name":"Bucaramanga, Colombia","cityCode":"BGA","city":"Bucaramanga","countryCode":"CO","timezone":"-5","latitude":7.1265,"longitude":-73.1848,"countryName":"Colombia"},{"code":"BGF","name":"Bangui, Central African Republic","cityCode":"BGF","city":"Bangui","countryCode":"CF","timezone":"1","latitude":4.3984799,"longitude":18.5188007,"countryName":"Central African Republic"},{"code":"BGI","name":"Bridgetown, Grantley Adams Intl, Barbados","cityCode":"BGI","city":"Bridgetown","countryCode":"BB","timezone":"-4","latitude":13.0746002,"longitude":-59.4925003,"countryName":"Barbados"},{"code":"BGO","name":"Bergen, Norway","cityCode":"BGO","city":"Bergen","countryCode":"NO","timezone":"2","latitude":60.2933998,"longitude":5.2181401,"countryName":"Norway"},{"code":"BGR","name":"Bangor, ME, USA","cityCode":"BGR","city":"Bangor","countryCode":"US","timezone":"-4","latitude":44.8073998,"longitude":-68.8281021,"countryName":"United States"},{"code":"BGW","name":"Bagdad International Airport, Iraq","cityCode":"BGW","city":"Baghdad","countryCode":"IQ","timezone":"3","latitude":33.2625008,"longitude":44.2346001,"countryName":"Iraq"},{"code":"BGY","name":"Bergamo, Italy","cityCode":"BGY","city":"Bergamo","countryCode":"IT","timezone":"2","latitude":45.673901,"longitude":9.70417,"countryName":"Italy"},{"code":"BHD","name":"Belfast   Harbour, United Kingdom","cityCode":"BHD","city":"Belfast","countryCode":"GB","timezone":"1","latitude":54.6180992,"longitude":-5.8724999,"countryName":"United Kingdom"},{"code":"BHE","name":"Blenheim, New Zealand","cityCode":"BHE","city":"Woodbourne","countryCode":"NZ","timezone":"13","latitude":-41.5182991,"longitude":173.8699951,"countryName":"New Zealand"},{"code":"BHH","name":"Bisha, Saudi Arabia","cityCode":"BHH","city":"Bisha","countryCode":"SA","timezone":"3","latitude":0.0,"longitude":0.0,"countryName":"Saudi Arabia"},{"code":"BHJ","name":"Bhuj, India","cityCode":"BHJ","city":"Bhuj","countryCode":"IN","timezone":"5","latitude":0.0,"longitude":0.0,"countryName":"India"},{"code":"BHM","name":"Birmingham, AL, USA","cityCode":"BHM","city":"Birmingham","countryCode":"US","timezone":"-5","latitude":33.5629005,"longitude":-86.7535019,"countryName":"United States"},{"code":"BHO","name":"Bhopal, India","cityCode":"BHO","city":"Bhopal","countryCode":"IN","timezone":"5","latitude":23.2875004,"longitude":77.3374023,"countryName":"India"},{"code":"BHQ","name":"Broken Hill, Australia","cityCode":"BHQ","city":"Broken Hill","countryCode":"AU","timezone":"10","latitude":-32.0014,"longitude":141.4720001,"countryName":"Australia"},{"code":"BHU","name":"Bhavnagar, India","cityCode":"BHU","city":"Bhaunagar","countryCode":"IN","timezone":"5","latitude":0.0,"longitude":0.0,"countryName":"India"},{"code":"BHV","name":"Bahawalpur, Pakistan","cityCode":"BHV","city":"Bahawalpur","countryCode":"PK","timezone":"5","latitude":29.3481007,"longitude":71.7180023,"countryName":"Pakistan"},{"code":"BHX","name":"Birmingham, United Kingdom","cityCode":"BHX","city":"Birmingham","countryCode":"GB","timezone":"1","latitude":52.4538994,"longitude":-1.7480299,"countryName":"United Kingdom"},{"code":"BIA","name":"Bastia, France","cityCode":"BIA","city":"Bastia","countryCode":"FR","timezone":"2","latitude":42.5527,"longitude":9.4837303,"countryName":"France"},{"code":"BIK","name":"Frans Kaisiepo, Indonesia","cityCode":"BIK","city":"Biak","countryCode":"ID","timezone":"9","latitude":-1.190017,"longitude":136.107997,"countryName":"Indonesia"},{"code":"BIL","name":"Billings, MT, USA","cityCode":"BIL","city":"Billings","countryCode":"US","timezone":"-6","latitude":45.8077011,"longitude":-108.5429993,"countryName":"United States"},{"code":"BIO","name":"Bilbao, Spain","cityCode":"BIO","city":"Bilbao","countryCode":"ES","timezone":"2","latitude":43.3011017,"longitude":-2.91061,"countryName":"Spain"},{"code":"BIQ","name":"Biarritz, France","cityCode":"BIQ","city":"Biarritz-bayonne","countryCode":"FR","timezone":"2","latitude":43.4683333,"longitude":-1.5311111,"countryName":"France"},{"code":"BIS","name":"Bismarck/Mandan, ND, USA","cityCode":"BIS","city":"Bismarck","countryCode":"US","timezone":"-5","latitude":46.7727013,"longitude":-100.7460022,"countryName":"United States"},{"code":"BIV","name":"Bria, Central African Republic","cityCode":"BIV","city":"Holland","countryCode":"CF","timezone":"-5","latitude":42.7427778,"longitude":-86.1078333,"countryName":"Central African Republic"},{"code":"BJB","name":"Bojnurd, Iran","cityCode":"BJB","city":"Bojnourd","countryCode":"IR","timezone":"3","latitude":0.0,"longitude":0.0,"countryName":"Iran"},{"code":"BJI","name":"Bemidji, MN, USA","cityCode":"BJI","city":"Bemidji","countryCode":"US","timezone":"-6","latitude":47.510722,"longitude":-94.934722,"countryName":"United States"},{"code":"BJL","name":"Banjul, Gambia","cityCode":"BJL","city":"Banjul","countryCode":"GM","timezone":"0","latitude":13.3380003,"longitude":-16.6522007,"countryName":"Gambia, The"},{"code":"BJM","name":"Bujumbura, Burundi","cityCode":"BJM","city":"Bujumbura","countryCode":"BI","timezone":"2","latitude":-3.3240199,"longitude":29.3185005,"countryName":"Burundi"},{"code":"BJW","name":"Turelelo Soa Airport, Bajawa","cityCode":"BJW","city":"Bajawa","countryCode":"ID","timezone":"0","latitude":-8.707519,"longitude":121.057542,"countryName":"Indonesia"},{"code":"BJX","name":"Leon, Mexico","cityCode":"BJX","city":"Del Bajio","countryCode":"MX","timezone":"-5","latitude":20.9934998,"longitude":-101.4810028,"countryName":"Mexico"},{"code":"BJZ","name":"Badajoz, Spain","cityCode":"BJZ","city":"Badajoz","countryCode":"ES","timezone":"2","latitude":38.8913002,"longitude":-6.8213301,"countryName":"Spain"},{"code":"BKB","name":"Bikaner, India","cityCode":"BKB","city":"Bikaner","countryCode":"IN","timezone":"5","latitude":0.0,"longitude":0.0,"countryName":"India"},{"code":"BKI","name":"Kota Kinabalu, Malaysia","cityCode":"BKI","city":"Kota Kinabalu","countryCode":"MY","timezone":"8","latitude":5.937208,"longitude":116.051181,"countryName":"Malaysia"},{"code":"BKK","name":"Suvarnabhumi Intl, Thailand","cityCode":"BKK","city":"Bangkok","countryCode":"TH","timezone":"0","latitude":13.681108,"longitude":100.747283,"countryName":"Thailand"},{"code":"BKL","name":"Cleveland, Burke Lakefront, OH, USA","cityCode":"BKL","city":"Cleveland","countryCode":"US","timezone":"-5","latitude":41.5175,"longitude":-81.683333,"countryName":"United States"},{"code":"BKM","name":"Bakelalan, Malaysia","cityCode":"BKM","city":"Bakalalan","countryCode":"MY","timezone":"8","latitude":0.0,"longitude":0.0,"countryName":"Malaysia"},{"code":"BKO","name":"Bamako, Mali","cityCode":"BKO","city":"Bamako","countryCode":"ML","timezone":"0","latitude":12.5334997,"longitude":-7.9499402,"countryName":"Mali"},{"code":"BKS","name":"Bengkulu, Fatmawati Soekarno","cityCode":"BKS","city":"Bengkulu","countryCode":"ID","timezone":"7","latitude":-3.8637,"longitude":102.339036,"countryName":"Indonesia"},{"code":"BKW","name":"Beckley, WV, USA","cityCode":"BKW","city":"Beckley","countryCode":"US","timezone":"-4","latitude":37.7873001,"longitude":-81.1241989,"countryName":"United States"},{"code":"BKX","name":"Brookings, SD, USA","cityCode":"BKX","city":"Brookings","countryCode":"US","timezone":"-5","latitude":44.3047981,"longitude":-96.8169022,"countryName":"United States"},{"code":"BLA","name":"Barcelona, Venezuela","cityCode":"BLA","city":"Barcelona","countryCode":"VE","timezone":"-4","latitude":10.1070995,"longitude":-64.6892014,"countryName":"Venezuela"},{"code":"BLF","name":"Bluefield, WV, USA","cityCode":"BLF","city":"Bluefield","countryCode":"US","timezone":"-4","latitude":37.2957993,"longitude":-81.2077026,"countryName":"United States"},{"code":"BLI","name":"Bellingham, WA, USA","cityCode":"BLI","city":"Bellingham","countryCode":"US","timezone":"-7","latitude":48.7928009,"longitude":-122.538002,"countryName":"United States"},{"code":"BLL","name":"Billund, Denmark","cityCode":"BLL","city":"Billund","countryCode":"DK","timezone":"2","latitude":55.7402992,"longitude":9.1517801,"countryName":"Denmark"},{"code":"BLQ","name":"Bologna, Italy","cityCode":"BLQ","city":"Bologna","countryCode":"IT","timezone":"2","latitude":44.5354,"longitude":11.2887,"countryName":"Italy"},{"code":"BLR","name":"Bangalore, India","cityCode":"BLR","city":"Bangalore","countryCode":"IN","timezone":"5","latitude":13.1979,"longitude":77.706299,"countryName":"India"},{"code":"BLT","name":"Blackwater, Australia","cityCode":"BLT","city":"Blackwater","countryCode":"AU","timezone":"10","latitude":-23.6030998,"longitude":148.8070068,"countryName":"Australia"},{"code":"BLZ","name":"Blantyre, Malawi","cityCode":"BLZ","city":"Blantyre","countryCode":"MW","timezone":"2","latitude":-15.6791,"longitude":34.973999,"countryName":"Malawi"},{"code":"BMA","name":"Stockholm   Bromma, Sweden","cityCode":"BMA","city":"Stockholm","countryCode":"SE","timezone":"2","latitude":59.3544006,"longitude":17.9417,"countryName":"Sweden"},{"code":"BME","name":"Broome, Australia","cityCode":"BME","city":"Broome","countryCode":"AU","timezone":"8","latitude":-17.9447002,"longitude":122.2320023,"countryName":"Australia"},{"code":"BMG","name":"Bloomington, IN, USA","cityCode":"BMG","city":"Bloomington","countryCode":"US","timezone":"-5","latitude":39.1460208,"longitude":-86.6166805,"countryName":"United States"},{"code":"BMI","name":"Bloomington, IL, USA","cityCode":"BMI","city":"Bloomington","countryCode":"US","timezone":"-5","latitude":40.4771004,"longitude":-88.9159012,"countryName":"United States"},{"code":"BMP","name":"Brampton Island, Australia","cityCode":"BMP","city":"Brampton Island","countryCode":"AU","timezone":"10","latitude":-20.8044444,"longitude":149.2794444,"countryName":"Australia"},{"code":"BMU","name":"Muhammad Salahuddin, Bima","cityCode":"BMU","city":"Bima","countryCode":"ID","timezone":"8","latitude":-8.539647,"longitude":118.687322,"countryName":"Indonesia"},{"code":"BNA","name":"Nashville, TN, USA","cityCode":"BNA","city":"Nashville","countryCode":"US","timezone":"-5","latitude":36.1245003,"longitude":-86.6781998,"countryName":"United States"},{"code":"BND","name":"Bandar Abbas, Iran","cityCode":"BND","city":"Bandar Abbas","countryCode":"IR","timezone":"3","latitude":0.0,"longitude":0.0,"countryName":"Iran"},{"code":"BNE","name":"Brisbane Intl, Australia","cityCode":"BNE","city":"Brisbane","countryCode":"AU","timezone":"0","latitude":-27.384167,"longitude":153.1175,"countryName":"Australia"},{"code":"BNK","name":"Ballina, Australia","cityCode":"BNK","city":"Ballina Byron Bay","countryCode":"AU","timezone":"11","latitude":-28.8339005,"longitude":153.5619965,"countryName":"Australia"},{"code":"BNN","name":"Broennoeysund, Norway","cityCode":"BNN","city":"Bronnoysund","countryCode":"NO","timezone":"2","latitude":65.4610977,"longitude":12.2174997,"countryName":"Norway"},{"code":"BNP","name":"Bannu, Pakistan","cityCode":"BNP","city":"Bannu","countryCode":"PK","timezone":"5","latitude":32.9729004,"longitude":70.5279007,"countryName":"Pakistan"},{"code":"BOB","name":"Bora Bora, French Polynesia","cityCode":"BOB","city":"Bora Bora","countryCode":"PF","timezone":"-10","latitude":-16.4444008,"longitude":-151.7510071,"countryName":"French Polynesia"},{"code":"BOD","name":"Bordeaux, France","cityCode":"BOD","city":"Bordeaux","countryCode":"FR","timezone":"2","latitude":44.8283005,"longitude":-0.715556,"countryName":"France"},{"code":"BOG","name":"Bogota, Colombia","cityCode":"BOG","city":"Bogota","countryCode":"CO","timezone":"-5","latitude":4.70159,"longitude":-74.1469,"countryName":"Colombia"},{"code":"BOI","name":"Boise, ID, USA","cityCode":"BOI","city":"Boise","countryCode":"US","timezone":"-6","latitude":43.5643997,"longitude":-116.2229996,"countryName":"United States"},{"code":"BOJ","name":"Bourgas/Burgas, Bulgaria","cityCode":"BOJ","city":"Bourgas","countryCode":"BG","timezone":"3","latitude":42.5695992,"longitude":27.5151997,"countryName":"Bulgaria"},{"code":"BOM","name":"Chhatrapati Shivaji International Airport, India","cityCode":"BOM","city":"Mumbai","countryCode":"IN","timezone":"0","latitude":19.088686,"longitude":72.867919,"countryName":"India"},{"code":"BON","name":"Bonaire, Netherlands Antilles","cityCode":"BON","city":"Kralendijk","countryCode":"BQ","timezone":"-4","latitude":12.1309996,"longitude":-68.2685013},{"code":"BOO","name":"Bodo, Norway","cityCode":"BOO","city":"Bodo","countryCode":"NO","timezone":"2","latitude":67.2692032,"longitude":14.3653002,"countryName":"Norway"},{"code":"BOS","name":"Boston   Logan, MA, USA","cityCode":"BOS","city":"Boston","countryCode":"US","timezone":"-4","latitude":42.3642998,"longitude":-71.0052033,"countryName":"United States"},{"code":"BOY","name":"Bobo/Dioulasso, Burkina Faso","cityCode":"BOY","city":"Bobo-dioulasso","countryCode":"BF","timezone":"0","latitude":11.1601,"longitude":-4.3309698,"countryName":"Burkina Faso"},{"code":"BPM","name":"Hyderabad Begumpet Airport, India","cityCode":"BPM","city":"Kabul","countryCode":"IN","timezone":"5","latitude":0.0,"longitude":0.0,"countryName":"India"},{"code":"BPN","name":"Sepinggan, Balikpapan","cityCode":"BPN","city":"Balikpapan","countryCode":"ID","timezone":"8","latitude":-1.268272,"longitude":116.894478,"countryName":"Indonesia"},{"code":"BPT","name":"Beaumont/Pt. Arthur, TX, USA","cityCode":"BPT","city":"Beaumont","countryCode":"US","timezone":"-5","latitude":29.9507999,"longitude":-94.0206986,"countryName":"United States"},{"code":"BQK","name":"Brunswick, GA, USA","cityCode":"BQK","city":"Brunswick","countryCode":"US","timezone":"-4","latitude":31.2588005,"longitude":-81.4664993,"countryName":"United States"},{"code":"BQN","name":"Aguadilla, Puerto Rico","cityCode":"BQN","city":"Aguadilla","countryCode":"PR","timezone":"-4","latitude":18.4948998,"longitude":-67.1294022,"countryName":"Puerto Rico"},{"code":"BRC","name":"San Carlos de Bariloche, Argentina","cityCode":"BRC","city":"San Carlos De Bariloche","countryCode":"AR","timezone":"-3","latitude":-41.1511993,"longitude":-71.1575012,"countryName":"Argentina"},{"code":"BRD","name":"Brainerd, MN, USA","cityCode":"BRD","city":"Brainerd","countryCode":"US","timezone":"-5","latitude":46.3983002,"longitude":-94.1380997,"countryName":"United States"},{"code":"BRE","name":"Bremen, Germany","cityCode":"BRE","city":"Bremen","countryCode":"DE","timezone":"2","latitude":53.0475006,"longitude":8.7866697,"countryName":"Germany"},{"code":"BRI","name":"Bari, Italy","cityCode":"BRI","city":"Bari","countryCode":"IT","timezone":"2","latitude":41.138901,"longitude":16.760599,"countryName":"Italy"},{"code":"BRL","name":"Burlington, IA, USA","cityCode":"BRL","city":"Burlington","countryCode":"US","timezone":"-5","latitude":40.7831993,"longitude":-91.1255035,"countryName":"United States"},{"code":"BRN","name":"Bern, Switzerland","cityCode":"BRN","city":"Bern","countryCode":"CH","timezone":"2","latitude":46.9141007,"longitude":7.4971499,"countryName":"Switzerland"},{"code":"BRS","name":"Bristol, United Kingdom","cityCode":"BRS","city":"Bristol","countryCode":"GB","timezone":"1","latitude":51.3827019,"longitude":-2.71909,"countryName":"United Kingdom"},{"code":"BRU","name":"Brussels, Belgium","cityCode":"BRU","city":"Brussels","countryCode":"BE","timezone":"2","latitude":50.9014015,"longitude":4.4844399,"countryName":"Belgium"},{"code":"BSB","name":"Brasilia, Brazil","cityCode":"BSB","city":"Brasilia","countryCode":"BR","timezone":"-2","latitude":-15.8691673,"longitude":-47.9208336,"countryName":"Brazil"},{"code":"BSL","name":"Basel, Switzerland","cityCode":"BSL","city":"Basel","countryCode":"FR","timezone":"2","latitude":47.59,"longitude":7.5291667,"countryName":"France"},{"code":"BSR","name":"Basrah International Airport, Iraq","cityCode":"BSR","city":"Basrah","countryCode":"IQ","timezone":"3","latitude":30.5491009,"longitude":47.6621018,"countryName":"Iraq"},{"code":"BTH","name":"Hang Nadim, Batam","cityCode":"BTH","city":"Batam","countryCode":"ID","timezone":"7","latitude":1.121028,"longitude":104.118753,"countryName":"Indonesia"},{"code":"BTJ","name":"Sultan Iskandarmuda, Banda Aceh","cityCode":"BTJ","city":"Banda Aceh","countryCode":"ID","timezone":"7","latitude":5.523522,"longitude":95.420372,"countryName":"Indonesia"},{"code":"SBG","name":"Maimun Saleh, Sabang","cityCode":"BTJ","city":"Banda Aceh","countryCode":"ID","latitude":5.87,"longitude":95.34,"countryName":"Indonesia"},{"code":"BTM","name":"Butte, MT, USA","cityCode":"BTM","city":"Butte","countryCode":"US","timezone":"-6","latitude":45.9547997,"longitude":-112.4970016,"countryName":"United States"},{"code":"BTR","name":"Baton Rouge, La, USA","cityCode":"BTR","city":"Baton Rouge","countryCode":"US","timezone":"-5","latitude":30.5331993,"longitude":-91.1495972,"countryName":"United States"},{"code":"BTS","name":"Bratislava, Slovakia","cityCode":"BTS","city":"Bratislava","countryCode":"SK","timezone":"2","latitude":48.1702004,"longitude":17.2126999,"countryName":"Slovakia"},{"code":"BTU","name":"Bintulu, Malaysia","cityCode":"BTU","city":"Bintulu","countryCode":"MY","timezone":"8","latitude":3.1238501,"longitude":113.0199966,"countryName":"Malaysia"},{"code":"BTV","name":"Burlington, VT, USA","cityCode":"BTV","city":"Burlington","countryCode":"US","timezone":"-4","latitude":44.4719009,"longitude":-73.1532974,"countryName":"United States"},{"code":"BTW","name":"Bersujud, Batulicin","cityCode":"BTW","city":"Batulicin","countryCode":"ID","latitude":-3.412,"longitude":116.0,"countryName":"Indonesia"},{"code":"BUD","name":"Budapest, Ferihegy, Hungary","cityCode":"BUD","city":"Budapest","countryCode":"HU","timezone":"2","latitude":47.4369011,"longitude":19.2556,"countryName":"Hungary"},{"code":"BUF","name":"Buffalo/Niagara Falls, NY, USA","cityCode":"BUF","city":"Buffalo","countryCode":"US","timezone":"-4","latitude":42.9404984,"longitude":-78.7322006,"countryName":"United States"},{"code":"BUG","name":"Bengueka, Angola","cityCode":"BUG","city":"Benguela","countryCode":"AO","timezone":"1","latitude":-12.609025,"longitude":13.403711,"countryName":"Angola"},{"code":"BUH","name":"Henri Coanda, Romania","cityCode":"BUH","city":"Bucharest","countryCode":"RO","timezone":"0","latitude":0.0,"longitude":0.0,"countryName":"Romania"},{"code":"BUP","name":"Bathinda, India","cityCode":"BUP","city":"Bathinda","countryCode":"IN","timezone":"5","latitude":0.0,"longitude":0.0,"countryName":"India"},{"code":"BUQ","name":"Bulawayo, Zimbabwe","cityCode":"BUQ","city":"Bulawayo","countryCode":"ZW","timezone":"2","latitude":-20.0174007,"longitude":28.6179009,"countryName":"Zimbabwe"},{"code":"BUR","name":"Burbank, CA, USA","cityCode":"BUR","city":"Burbank","countryCode":"US","timezone":"-7","latitude":34.2006989,"longitude":-118.3590012,"countryName":"United States"},{"code":"BUS","name":"Batumi International Airport, Georgia","cityCode":"BUS","city":"Batumi","countryCode":"GE","timezone":"4","latitude":0.0,"longitude":0.0,"countryName":"Georgia"},{"code":"BUT","name":"Bathpalathang, Bhutan","cityCode":"BUT","city":"Bathpalathang","countryCode":"BT","timezone":"0","latitude":0.0,"longitude":0.0,"countryName":"Bhutan"},{"code":"BUW","name":"Betoambari, Indonesia","cityCode":"BUW","city":"Baubau","countryCode":"ID","timezone":"8","latitude":-5.4868798,"longitude":122.5690002,"countryName":"Indonesia"},{"code":"BUZ","name":"Bushehr, Iran","cityCode":"BUZ","city":"Bushehr","countryCode":"IR","timezone":"3","latitude":0.0,"longitude":0.0,"countryName":"Iran"},{"code":"BVB","name":"Boa Vista, Brazil","cityCode":"BVB","city":"Boa Vista","countryCode":"BR","timezone":"-4","latitude":2.8413889,"longitude":-60.6922226,"countryName":"Brazil"},{"code":"BWI","name":"Baltimore Washington Int`l Airport; MD, USA","cityCode":"BWI","city":"Baltimore","countryCode":"US","timezone":"-4","latitude":39.1753998,"longitude":-76.6682968,"countryName":"United States"},{"code":"BWN","name":"Brunei International Airport, Brunei","cityCode":"BWN","city":"Bandar Seri Begawan","countryCode":"BN","timezone":"8","latitude":4.9442,"longitude":114.9280014,"countryName":"Brunei"},{"code":"BWT","name":"Burnie (Wynyard), Australia","cityCode":"BWT","city":"Burnie","countryCode":"AU","timezone":"11","latitude":-40.9989014,"longitude":145.7310028,"countryName":"Australia"},{"code":"BWX","name":"Blimbing Sari, Indonesia","cityCode":"BWX","city":"Banyuwangi","countryCode":"ID","timezone":"7","latitude":-8.310895,"longitude":114.2610823,"countryName":"Indonesia"},{"code":"BXH","name":"Balhash, Kazakhstan","cityCode":"BXH","city":"Balkhash","countryCode":"KZ","timezone":"6","latitude":0.0,"longitude":0.0,"countryName":"Kazakhstan"},{"code":"BXO","name":"Bissau, Guinea Bissau","cityCode":"BXO","city":"Buochs","countryCode":"LN","timezone":"1","latitude":46.9725,"longitude":8.398611},{"code":"BXR","name":"Bam, Iran","cityCode":"BXR","city":"Bam","countryCode":"IR","timezone":"3","latitude":0.0,"longitude":0.0,"countryName":"Iran"},{"code":"BXS","name":"Borrego Springs, CA, USA","cityCode":"BXS","city":"Borrego Springs","countryCode":"US","timezone":"-7","latitude":33.2590278,"longitude":-116.3209722,"countryName":"United States"},{"code":"BXU","name":"Butuan, Philippines","cityCode":"BXU","city":"Butuan","countryCode":"PH","timezone":"8","latitude":0.0,"longitude":0.0,"countryName":"Philippines"},{"code":"BXY","name":"Baykonur, Kazakhstan","cityCode":"BXY","city":"Baykonur","countryCode":"KZ","timezone":"6","latitude":0.0,"longitude":0.0,"countryName":"Kazakhstan"},{"code":"BYK","name":"Bouake, Ivory Coast","cityCode":"BYK","city":"Bouake","countryCode":"CI","timezone":"0","latitude":7.7388,"longitude":-5.0736699,"countryName":"Cote d'Ivoire (Ivory Coast)"},{"code":"BYU","name":"Bayreuth, Germany","cityCode":"BYU","city":"Bayreuth","countryCode":"DE","timezone":"1","latitude":49.984428,"longitude":11.638569,"countryName":"Germany"},{"code":"BZE","name":"Belize City, Belize","cityCode":"BZE","city":"Belize City","countryCode":"BZ","timezone":"-6","latitude":17.5391007,"longitude":-88.308197,"countryName":"Belize"},{"code":"BZL","name":"Barisal Airport, Bangladesh","cityCode":"BZL","city":"Barisal","countryCode":"BD","timezone":"6","latitude":22.8010006,"longitude":90.3012009,"countryName":"Bangladesh"},{"code":"BZN","name":"Bozeman, MT, USA","cityCode":"BZN","city":"Bozeman","countryCode":"US","timezone":"-6","latitude":45.7775002,"longitude":-111.1529999,"countryName":"United States"},{"code":"BZV","name":"Brazzaville, Congo","cityCode":"BZV","city":"Brazzaville","countryCode":"CG","timezone":"1","latitude":-4.2516999,"longitude":15.2530003,"countryName":"Congo, (Congo Â Brazzaville)"},{"code":"CAB","name":"Cabinda, Angola","cityCode":"CAB","city":"Cabinda","countryCode":"AO","timezone":"1","latitude":-5.5969901,"longitude":12.1884003,"countryName":"Angola"},{"code":"CAE","name":"Columbia, SC, USA","cityCode":"CAE","city":"Columbia","countryCode":"US","timezone":"-4","latitude":33.9388008,"longitude":-81.1194992,"countryName":"United States"},{"code":"CAG","name":"Cagliari, Italy","cityCode":"CAG","city":"Cagliari","countryCode":"IT","timezone":"2","latitude":39.251499,"longitude":9.05428,"countryName":"Italy"},{"code":"CAI","name":"Cairo Int`l, Egypt","cityCode":"CAI","city":"Cairo","countryCode":"EG","timezone":"2","latitude":30.1219006,"longitude":31.4055996,"countryName":"Egypt"},{"code":"CAK","name":"Akron, OH, USA","cityCode":"CAK","city":"Akron","countryCode":"US","timezone":"-4","latitude":40.9160996,"longitude":-81.4421997,"countryName":"United States"},{"code":"CAN","name":"Baiyun Intl Guangzhou, China","cityCode":"CAN","city":"Guangzhou","countryCode":"CN","timezone":"0","latitude":23.392436,"longitude":113.298786,"countryName":"China, People's Republic of"},{"code":"CAY","name":"Cayenne, French Guayana","cityCode":"CAY","city":"Cayenne","countryCode":"GF","timezone":"-3","latitude":4.8198099,"longitude":-52.3604012,"countryName":"French Guiana"},{"code":"CBB","name":"Cochabamba, Bolivia","cityCode":"CBB","city":"Cochabamba","countryCode":"BO","timezone":"-4","latitude":-17.4211006,"longitude":-66.1771011,"countryName":"Bolivia"},{"code":"CBG","name":"Cambrigde, United Kingdom","cityCode":"CBG","city":"Cambridge","countryCode":"GB","timezone":"0","latitude":52.205,"longitude":0.175,"countryName":"United Kingdom"},{"code":"CBO","name":"Cotabato, Philippines","cityCode":"CBO","city":"Cotabato","countryCode":"PH","timezone":"8","latitude":0.0,"longitude":0.0,"countryName":"Philippines"},{"code":"CBR","name":"Canberra, Australia","cityCode":"CBR","city":"Canberra","countryCode":"AU","timezone":"11","latitude":-35.3069,"longitude":149.1950073,"countryName":"Australia"},{"code":"CCJ","name":"Calicut International Airport, India","cityCode":"CCJ","city":"Calicut","countryCode":"IN","timezone":"5","latitude":11.1367998,"longitude":75.9552994,"countryName":"India"},{"code":"CCR","name":"Concord, CA, USA","cityCode":"CCR","city":"Concord","countryCode":"US","timezone":"-8","latitude":37.9896667,"longitude":-122.0568889,"countryName":"United States"},{"code":"CCS","name":"Caracas, Venezuela","cityCode":"CCS","city":"Caracas","countryCode":"VE","timezone":"-4","latitude":10.603117,"longitude":-66.9905853,"countryName":"Venezuela"},{"code":"CCU","name":"Netaji Subhash Chandra Bose International Airport, India","cityCode":"CCU","city":"Kolkata","countryCode":"IN","timezone":"5","latitude":22.6546993,"longitude":88.4467011,"countryName":"India"},{"code":"CCZ","name":"Chub Cay, Bahamas","cityCode":"CCZ","city":"Chub Cay","countryCode":"BS","timezone":"-4","latitude":25.4171009,"longitude":-77.8808975,"countryName":"Bahamas, The"},{"code":"CDC","name":"Cedar City, UT, USA","cityCode":"CDC","city":"Cedar City","countryCode":"US","timezone":"-6","latitude":37.7010002,"longitude":-113.098999,"countryName":"United States"},{"code":"CDG","name":"Charles De Gaulle, France","cityCode":"CDG","city":"Paris","countryCode":"FR","timezone":"0","latitude":49.012779,"longitude":2.55,"countryName":"France"},{"code":"CDP","name":"Cuddapah, India","cityCode":"CDP","city":"Cuddapah","countryCode":"IN","timezone":"5","latitude":0.0,"longitude":0.0,"countryName":"India"},{"code":"CDV","name":"Cordova, AK, USA","cityCode":"CDV","city":"Cordova","countryCode":"US","timezone":"-8","latitude":60.4917984,"longitude":-145.4779968,"countryName":"United States"},{"code":"CEB","name":"Mactan Cebu International Airport, Philippines","cityCode":"CEB","city":"Cebu","countryCode":"PH","timezone":"0","latitude":10.307542,"longitude":123.979439,"countryName":"Philippines"},{"code":"CEC","name":"Crescent City, CA, USA","cityCode":"CEC","city":"Crescent City","countryCode":"US","timezone":"-7","latitude":41.780201,"longitude":-124.2369995,"countryName":"United States"},{"code":"CED","name":"Ceduna, Australia","cityCode":"CED","city":"Ceduna","countryCode":"AU","timezone":"10","latitude":-32.1306,"longitude":133.7100067,"countryName":"Australia"},{"code":"CEN","name":"Ciudad Obregon, Mexico","cityCode":"CEN","city":"Ciudad Obregon","countryCode":"MX","timezone":"-7","latitude":27.3925991,"longitude":-109.8330002,"countryName":"Mexico"},{"code":"CES","name":"Cessnock, Australia","cityCode":"CES","city":"Cessnock","countryCode":"AU","timezone":"10","latitude":-32.7875,"longitude":151.342,"countryName":"Australia"},{"code":"CFE","name":"Clermont Ferrand, France","cityCode":"CFE","city":"Clermont-Ferrand","countryCode":"FR","timezone":"2","latitude":45.7867012,"longitude":3.1691699,"countryName":"France"},{"code":"CFG","name":"Cienfuegos, Canada","cityCode":"CFG","city":"Cienfuegos","countryCode":"CA","timezone":"-4","latitude":22.1499996,"longitude":-80.4141998,"countryName":"Canada"},{"code":"CFS","name":"Coffs Harbour, Australia","cityCode":"CFS","city":"Coff's Harbour","countryCode":"AU","timezone":"10","latitude":-30.3206005,"longitude":153.1159973,"countryName":"Australia"},{"code":"CFU","name":"Corfu, Greece","cityCode":"CFU","city":"Kerkyracorfu","countryCode":"GR","timezone":"3","latitude":39.6018982,"longitude":19.9116993,"countryName":"Greece"},{"code":"CGA","name":"Craig, AK, USA","cityCode":"CGA","city":"Craig","countryCode":"US","timezone":"-9","latitude":55.478889,"longitude":-133.147778,"countryName":"United States"},{"code":"CGB","name":"Cuiaba, Brazil","cityCode":"CGB","city":"Cuiaba","countryCode":"BR","timezone":"-3","latitude":-15.6528997,"longitude":-56.1166992,"countryName":"Brazil"},{"code":"CGH","name":"Sao Paulo   Congonhas, Brazil","cityCode":"CGH","city":"Sao Paulo","countryCode":"BR","timezone":"-2","latitude":-23.6261101,"longitude":-46.6563873,"countryName":"Brazil"},{"code":"CGK","name":"Soekarno Hatta International Airport, Indonesia","cityCode":"CGK","city":"Jakarta","countryCode":"ID","timezone":"7","latitude":-6.125567,"longitude":106.655897,"countryName":"Indonesia"},{"code":"CGM","name":"Camiguin, Philippines","cityCode":"CGM","city":"Camiguin","countryCode":"PH","timezone":"8","latitude":0.0,"longitude":0.0,"countryName":"Philippines"},{"code":"CGN","name":"Cologne (Koeln)/Bonn, Germany","cityCode":"CGN","city":"Cologne","countryCode":"DE","timezone":"2","latitude":50.8658981,"longitude":7.1427398,"countryName":"Germany"},{"code":"CGO","name":"Xinzheng, China","cityCode":"CGO","city":"Zhengzhou","countryCode":"CN","timezone":"0","latitude":34.519672,"longitude":113.840889,"countryName":"China, People's Republic of"},{"code":"CGP","name":"Shah Amanat International Airport, Bangladesh","cityCode":"CGP","city":"Chittagong","countryCode":"BD","timezone":"6","latitude":22.2495995,"longitude":91.8133011,"countryName":"Bangladesh"},{"code":"CGQ","name":"Changchun, Jilin, China","cityCode":"CGQ","city":"Changchun","countryCode":"CN","timezone":"8","latitude":43.9962006,"longitude":125.6849976,"countryName":"China, People's Republic of"},{"code":"CGR","name":"Campo Grande, Brazil","cityCode":"CGR","city":"Campo Grande","countryCode":"BR","timezone":"-3","latitude":-20.4687004,"longitude":-54.6725006,"countryName":"Brazil"},{"code":"CGY","name":"Cagayan de Oro, Philippines","cityCode":"CGY","city":"Ladag","countryCode":"PH","timezone":"8","latitude":0.0,"longitude":0.0,"countryName":"Philippines"},{"code":"CHA","name":"Chattanooga, TN, USA","cityCode":"CHA","city":"Chattanooga","countryCode":"US","timezone":"-4","latitude":35.0353012,"longitude":-85.2037964,"countryName":"United States"},{"code":"CHC","name":"Christchurch, New Zealand","cityCode":"CHC","city":"Christchurch","countryCode":"NZ","timezone":"13","latitude":-43.489399,"longitude":172.5319977,"countryName":"New Zealand"},{"code":"CHI","name":"Chicago, IL, USA","cityCode":"CHI","city":"Chicago","countryCode":"US","timezone":"-6","latitude":41.883611,"longitude":-87.631667,"countryName":"United States"},{"code":"CHO","name":"Charlottesville, VA, USA","cityCode":"CHO","city":"Charlottesville VA","countryCode":"US","timezone":"-4","latitude":38.1385994,"longitude":-78.4529038,"countryName":"United States"},{"code":"CHQ","name":"Chania, Greece","cityCode":"CHQ","city":"Chania","countryCode":"GR","timezone":"3","latitude":35.5317001,"longitude":24.1497002,"countryName":"Greece"},{"code":"CHS","name":"Charleston, SC, USA","cityCode":"CHS","city":"Charleston","countryCode":"US","timezone":"-4","latitude":32.8986015,"longitude":-80.0404968,"countryName":"United States"},{"code":"CIA","name":"Rome   Ciampino, Italy","cityCode":"CIA","city":"Rome","countryCode":"IT","timezone":"2","latitude":41.7994,"longitude":12.5949,"countryName":"Italy"},{"code":"CIC","name":"Chico, CA, USA","cityCode":"CIC","city":"Chico","countryCode":"US","timezone":"-8","latitude":39.795383,"longitude":-121.858422,"countryName":"United States"},{"code":"CID","name":"Cedar Rapids, IA, USA","cityCode":"CID","city":"Cedar Rapids","countryCode":"US","timezone":"-5","latitude":41.8847008,"longitude":-91.7108002,"countryName":"United States"},{"code":"CIP","name":"Chipata, Zambia","cityCode":"CIP","city":"Chipata","countryCode":"ZM","timezone":"2","latitude":-13.5583,"longitude":32.5872002,"countryName":"Zambia"},{"code":"CIT","name":"Shymkent, Kazakhstan","cityCode":"CIT","city":"Chimkent","countryCode":"KZ","timezone":"6","latitude":0.0,"longitude":0.0,"countryName":"Kazakhstan"},{"code":"CJB","name":"Coimbatore, India","cityCode":"CJB","city":"Coimbatore","countryCode":"IN","timezone":"5","latitude":11.0299997,"longitude":77.0434036,"countryName":"India"},{"code":"CJL","name":"Chitral, Pakistan","cityCode":"CJL","city":"Chitral","countryCode":"PK","timezone":"5","latitude":35.8866005,"longitude":71.8005981,"countryName":"Pakistan"},{"code":"CJS","name":"Ciudad Juarez, Mexico","cityCode":"CJS","city":"Ciudad Juarez","countryCode":"MX","timezone":"-6","latitude":31.6361008,"longitude":-106.4290009,"countryName":"Mexico"},{"code":"CKB","name":"Clarksburg, WV, USA","cityCode":"CKB","city":"Clarksburg","countryCode":"US","timezone":"-4","latitude":39.2966003,"longitude":-80.2281036,"countryName":"United States"},{"code":"CKG","name":"Jiangbei, China","cityCode":"CKG","city":"Chongqing","countryCode":"CN","timezone":"0","latitude":29.719217,"longitude":106.641678,"countryName":"China, People's Republic of"},{"code":"CKY","name":"Conakry, Guinea","cityCode":"CKY","city":"Conakry","countryCode":"GN","timezone":"0","latitude":9.57689,"longitude":-13.612,"countryName":"Guinea"},{"code":"CLD","name":"Carlsbad, CA, USA","cityCode":"CLD","city":"Carlsbad","countryCode":"US","timezone":"-8","latitude":33.0742,"longitude":-117.1648,"countryName":"United States"},{"code":"CLE","name":"Cleveland, Hopkins, OH, USA","cityCode":"CLE","city":"Cleveland","countryCode":"US","timezone":"-4","latitude":41.4117012,"longitude":-81.8498001,"countryName":"United States"},{"code":"CLL","name":"College Station/Bryan, TX, USA","cityCode":"CLL","city":"College Station","countryCode":"US","timezone":"-5","latitude":30.5886002,"longitude":-96.3638001,"countryName":"United States"},{"code":"CLM","name":"Port Angeles, WA, USA","cityCode":"CLM","city":"Port Angeles","countryCode":"US","timezone":"-7","latitude":48.1202011,"longitude":-123.5,"countryName":"United States"},{"code":"CLO","name":"Cali, Colombia","cityCode":"CLO","city":"Cali","countryCode":"CO","timezone":"-5","latitude":3.54322,"longitude":-76.3816,"countryName":"Colombia"},{"code":"CLQ","name":"Colima, Mexico","cityCode":"CLQ","city":"Colima","countryCode":"MX","timezone":"-5","latitude":19.2770004,"longitude":-103.5770035,"countryName":"Mexico"},{"code":"CLT","name":"Charlotte, NC, USA","cityCode":"CLT","city":"Charlotte","countryCode":"US","timezone":"-4","latitude":35.2140007,"longitude":-80.9431,"countryName":"United States"},{"code":"CLY","name":"Calvi, France","cityCode":"CLY","city":"Calvi","countryCode":"FR","timezone":"2","latitude":42.5244444,"longitude":8.7930556,"countryName":"France"},{"code":"CMB","name":"Bandaranaike Intl Colombo","cityCode":"CMB","city":"Colombo","countryCode":"LK","timezone":"6","latitude":7.180756,"longitude":79.884117,"countryName":"Sri Lanka"},{"code":"CME","name":"Ciudad Del Carmen, Mexico","cityCode":"CME","city":"Ciudad Del Carmen","countryCode":"MX","timezone":"-5","latitude":18.6536999,"longitude":-91.7990036,"countryName":"Mexico"},{"code":"CMF","name":"Chambery, France","cityCode":"CMF","city":"Chambery","countryCode":"FR","timezone":"2","latitude":45.6380997,"longitude":5.88023,"countryName":"France"},{"code":"CMH","name":"Columbus, OH, USA","cityCode":"CMH","city":"Columbus","countryCode":"US","timezone":"-4","latitude":39.9980011,"longitude":-82.8918991,"countryName":"United States"},{"code":"CMI","name":"Champaign, IL, USA","cityCode":"CMI","city":"Champaign","countryCode":"US","timezone":"-5","latitude":40.0391998,"longitude":-88.2780991,"countryName":"United States"},{"code":"CMN","name":"Casablanca, Mohamed V, Morocco","cityCode":"CMN","city":"Casablanca","countryCode":"MA","timezone":"1","latitude":33.3675003,"longitude":-7.5899701,"countryName":"Morocco"},{"code":"CMX","name":"Hancock, MI, USA","cityCode":"CMX","city":"Hancock","countryCode":"US","timezone":"-4","latitude":47.1683998,"longitude":-88.4890976,"countryName":"United States"},{"code":"CND","name":"Constanza, Romania","cityCode":"CND","city":"Constanta","countryCode":"RO","timezone":"3","latitude":44.3622017,"longitude":28.4883003,"countryName":"Romania"},{"code":"CNF","name":"Belo Horizonte, Brazil","cityCode":"CNF","city":"Belo Horizonte","countryCode":"BR","timezone":"-2","latitude":-19.6244431,"longitude":-43.9719429,"countryName":"Brazil"},{"code":"CNS","name":"Cairns, Australia","cityCode":"CNS","city":"Cairns","countryCode":"AU","timezone":"10","latitude":-16.8857994,"longitude":145.7550049,"countryName":"Australia"},{"code":"CNX","name":"Chiang Mai, Thailand","cityCode":"CNX","city":"Chiang Mai","countryCode":"TH","latitude":18.766847,"longitude":98.962644,"countryName":"Thailand"},{"code":"COD","name":"Cody/Powell/Yellowstone, WY, USA","cityCode":"COD","city":"Cody","countryCode":"US","timezone":"-7","latitude":44.520194,"longitude":-109.023806,"countryName":"United States"},{"code":"COK","name":"Cochin International Airport, India","cityCode":"COK","city":"Kochi","countryCode":"IN","timezone":"5","latitude":10.1520004,"longitude":76.4019013,"countryName":"India"},{"code":"COO","name":"Cotonou, Benin","cityCode":"COO","city":"Cotonou","countryCode":"BJ","timezone":"1","latitude":6.3572302,"longitude":2.3843501,"countryName":"Benin"},{"code":"COR","name":"Cordoba, Argentina","cityCode":"COR","city":"Cordoba","countryCode":"AR","timezone":"-3","latitude":-31.3236008,"longitude":-64.2080002,"countryName":"Argentina"},{"code":"COS","name":"Colorado Springs, CO, USA","cityCode":"COS","city":"Colorado Springs","countryCode":"US","timezone":"-6","latitude":38.8058014,"longitude":-104.7009964,"countryName":"United States"},{"code":"CPD","name":"Coober Pedy, Australia","cityCode":"CPD","city":"Coober Pedy","countryCode":"AU","timezone":"10","latitude":-29.0400009,"longitude":134.720993,"countryName":"Australia"},{"code":"CPH","name":"Kastrup, Denmark","cityCode":"CPH","city":"Copenhagen","countryCode":"DK","timezone":"1","latitude":55.617917,"longitude":12.655972,"countryName":"Denmark"},{"code":"CPR","name":"Casper, WY, USA","cityCode":"CPR","city":"Casper","countryCode":"US","timezone":"-6","latitude":42.908001,"longitude":-106.4639969,"countryName":"United States"},{"code":"CPT","name":"Cape Town, South Africa","cityCode":"CPT","city":"Cape Town","countryCode":"ZA","timezone":"2","latitude":-33.9648018,"longitude":18.6016998,"countryName":"South Africa"},{"code":"CQD","name":"Shahre Kord, Iran","cityCode":"CQD","city":"Shahre Kord","countryCode":"IR","timezone":"3","latitude":0.0,"longitude":0.0,"countryName":"Iran"},{"code":"CRK","name":"Clark International Airport, Philippines","cityCode":"CRK","city":"Angeles City","countryCode":"PH","timezone":"8","latitude":0.0,"longitude":0.0,"countryName":"Philippines"},{"code":"CRM","name":"Catarman, Philippines","cityCode":"CRM","city":"Catarman","countryCode":"PH","timezone":"8","latitude":0.0,"longitude":0.0,"countryName":"Philippines"},{"code":"CRP","name":"Corpus Christi, TX, USA","cityCode":"CRP","city":"Corpus Christi","countryCode":"US","timezone":"-5","latitude":27.7703991,"longitude":-97.5011978,"countryName":"United States"},{"code":"CRW","name":"Charleston, WV, USA","cityCode":"CRW","city":"Charleston","countryCode":"US","timezone":"-4","latitude":38.3731003,"longitude":-81.5932007,"countryName":"United States"},{"code":"CSG","name":"Columbus, GA, USA","cityCode":"CSG","city":"Columbus","countryCode":"US","timezone":"-4","latitude":32.5163002,"longitude":-84.9389038,"countryName":"United States"},{"code":"CSX","name":"Huanghua, China","cityCode":"CSX","city":"Changcha","countryCode":"CN","timezone":"8","latitude":28.189158,"longitude":113.219633,"countryName":"China, People's Republic of"},{"code":"CTA","name":"Catania, Italy","cityCode":"CTA","city":"Catania","countryCode":"IT","timezone":"2","latitude":37.466801,"longitude":15.0664,"countryName":"Italy"},{"code":"CTG","name":"Catagena, Colombia","cityCode":"CTG","city":"Cartagena","countryCode":"CO","timezone":"-5","latitude":10.4424,"longitude":-75.513,"countryName":"Colombia"},{"code":"CTN","name":"Cooktown, Australia","cityCode":"CTN","city":"Cooktown","countryCode":"AU","timezone":"10","latitude":-15.4447002,"longitude":145.1840057,"countryName":"Australia"},{"code":"CTS","name":"New Chitose, Japan","cityCode":"CTS","city":"Sapporo","countryCode":"JP","timezone":"9","latitude":42.7752,"longitude":141.692283,"countryName":"Japan"},{"code":"CTU","name":"Shuangliu, China","cityCode":"CTU","city":"Chengdu","countryCode":"CN","timezone":"8","latitude":30.578528,"longitude":103.947086,"countryName":"China, People's Republic of"},{"code":"CUL","name":"Culiacan, Mexico","cityCode":"CUL","city":"Culiacan","countryCode":"MX","timezone":"-6","latitude":24.7644997,"longitude":-107.4749985,"countryName":"Mexico"},{"code":"CUN","name":"Cancun, Mexico","cityCode":"CUN","city":"Cancun","countryCode":"MX","timezone":"-5","latitude":21.0365009,"longitude":-86.8770981,"countryName":"Mexico"},{"code":"CUR","name":"Curaçao International Airport, Curacao","cityCode":"CUR","city":"Willemstad","countryCode":"CW","timezone":"-4","latitude":12.1889,"longitude":-68.959801},{"code":"CUU","name":"Chihuahua, Gen Fierro Villalobos, Mexico","cityCode":"CUU","city":"Chihuahua","countryCode":"MX","timezone":"-6","latitude":28.7028999,"longitude":-105.9649963,"countryName":"Mexico"},{"code":"CVG","name":"Cincinnati, OH, USA","cityCode":"CVG","city":"Cincinnati","countryCode":"US","timezone":"-4","latitude":39.0488014,"longitude":-84.6678009,"countryName":"United States"},{"code":"CVM","name":"Ciudad Victoria, Mexico","cityCode":"CVM","city":"Ciudad Victoria","countryCode":"MX","timezone":"-5","latitude":23.7033005,"longitude":-98.9564972,"countryName":"Mexico"},{"code":"CVQ","name":"Carnarvon, Australia","cityCode":"CVQ","city":"Carnarvon","countryCode":"AU","timezone":"8","latitude":-24.880211,"longitude":113.67174,"countryName":"Australia"},{"code":"CWA","name":"Wausau/Stevens Point, WI, USA","cityCode":"CWA","city":"Wassau","countryCode":"US","timezone":"-6","latitude":44.772726,"longitude":-89.646635,"countryName":"United States"},{"code":"CWB","name":"Curitiba, Brazil","cityCode":"CWB","city":"Curitiba","countryCode":"BR","timezone":"-2","latitude":-25.5284996,"longitude":-49.1758003,"countryName":"Brazil"},{"code":"CWL","name":"Cardiff, United Kingdom","cityCode":"CWL","city":"Cardiff","countryCode":"GB","timezone":"1","latitude":51.3967018,"longitude":-3.3433299,"countryName":"United Kingdom"},{"code":"CXB","name":"Coxs Bazar Airport, Bangladesh","cityCode":"CXB","city":"Cox's Bazar","countryCode":"BD","timezone":"6","latitude":0.0,"longitude":0.0,"countryName":"Bangladesh"},{"code":"CXI","name":"Cassidy International Airport, Kiribati","cityCode":"CXI","city":"Kiritimati","countryCode":"KI","timezone":"14","latitude":1.98616,"longitude":-157.3500061,"countryName":"Kiribati"},{"code":"CYP","name":"Calbayog, Philippines","cityCode":"CYP","city":"Calbayog City","countryCode":"PH","timezone":"8","latitude":0.0,"longitude":0.0,"countryName":"Philippines"},{"code":"CYS","name":"Cheyenne, WY, USA","cityCode":"CYS","city":"Cheyenne","countryCode":"US","timezone":"-6","latitude":41.1557007,"longitude":-104.8119965,"countryName":"United States"},{"code":"CYU","name":"Cuyo, Philippines","cityCode":"CYU","city":"Cuyo","countryCode":"PH","timezone":"8","latitude":0.0,"longitude":0.0,"countryName":"Philippines"},{"code":"CYZ","name":"Cauayan, Philippines","cityCode":"CYZ","city":"Cauayan","countryCode":"PH","timezone":"8","latitude":0.0,"longitude":0.0,"countryName":"Philippines"},{"code":"CZL","name":"Constantine, Algeria","cityCode":"CZL","city":"Constantine","countryCode":"DZ","timezone":"1","latitude":36.276001,"longitude":6.6203899,"countryName":"Algeria"},{"code":"CZM","name":"Cozmel, Mexico","cityCode":"CZM","city":"Cozumel","countryCode":"MX","timezone":"-5","latitude":20.5223999,"longitude":-86.9255981,"countryName":"Mexico"},{"code":"DAB","name":"Daytona Beach, FL, USA","cityCode":"DAB","city":"Daytona Beach","countryCode":"US","timezone":"-4","latitude":29.179899,"longitude":-81.058098,"countryName":"United States"},{"code":"DAC","name":"Shahjalal International Airport, Bangladesh","cityCode":"DAC","city":"Dhaka","countryCode":"BD","latitude":23.843333,"longitude":90.397781,"countryName":"Bangladesh"},{"code":"DAL","name":"Dallas, Love Field, TX, USA","cityCode":"DAL","city":"Dallas","countryCode":"US","timezone":"-5","latitude":32.847099300000004,"longitude":-96.851799,"countryName":"United States"},{"code":"DAM","name":"Damascus, International, Syria","cityCode":"DAM","city":"Damascus","countryCode":"SY","timezone":"3","latitude":33.411499,"longitude":36.5155983,"countryName":"Syria"},{"code":"DAR","name":"Dar es Salam (Daressalam), Tanzania","cityCode":"DAR","city":"Dar Es Salaam","countryCode":"TZ","timezone":"3","latitude":-6.8781099,"longitude":39.2025986,"countryName":"Tanzania"},{"code":"DAY","name":"Dayton, OH, USA","cityCode":"DAY","city":"Dayton","countryCode":"US","timezone":"-4","latitude":39.902401,"longitude":-84.2193985,"countryName":"United States"},{"code":"DBO","name":"Dubbo, Australia","cityCode":"DBO","city":"Dubbo","countryCode":"AU","timezone":"11","latitude":-32.2167015,"longitude":148.5749969,"countryName":"Australia"},{"code":"DBQ","name":"Dubuque, IA, USA","cityCode":"DBQ","city":"Dubuque IA","countryCode":"US","timezone":"-5","latitude":42.4020004,"longitude":-90.7095032,"countryName":"United States"},{"code":"DBV","name":"Dubrovnik, Croatia","cityCode":"DBV","city":"Dubrovnik","countryCode":"HR","timezone":"2","latitude":42.5614014,"longitude":18.2681999,"countryName":"Croatia"},{"code":"DCA","name":"Washington DC   Ronald Reagan National, USA","cityCode":"DCA","city":"Washington","countryCode":"US","timezone":"-4","latitude":38.8521004,"longitude":-77.0376968,"countryName":"United States"},{"code":"DEC","name":"Decatur, IL, USA","cityCode":"DEC","city":"Decatur","countryCode":"US","timezone":"-5","latitude":39.8345985,"longitude":-88.8656998,"countryName":"United States"},{"code":"DED","name":"Dehra Dun, India","cityCode":"DED","city":"Dehra Dun","countryCode":"IN","timezone":"5","latitude":0.0,"longitude":0.0,"countryName":"India"},{"code":"DEF","name":"Dezful, Iran","cityCode":"DEF","city":"Dezful, Iran","countryCode":"IR","timezone":"3","latitude":0.0,"longitude":0.0,"countryName":"Iran"},{"code":"DEL","name":"Indira Ghandi International Airport, India","cityCode":"DEL","city":"Delhi","countryCode":"IN","timezone":"0","latitude":28.5665,"longitude":77.103088,"countryName":"India"},{"code":"DEN","name":"Denver Intl, USA","cityCode":"DEN","city":"Denver","countryCode":"US","timezone":"0","latitude":39.861656,"longitude":-104.673178,"countryName":"United States"},{"code":"DET","name":"Detroit City, MI, USA","cityCode":"DET","city":"Detroit","countryCode":"US","timezone":"-5","latitude":42.409195,"longitude":-83.009861,"countryName":"United States"},{"code":"DEX","name":"Yahukimo, Dekai","cityCode":"DEX","city":"Dekai","countryCode":"ID","latitude":0.0,"longitude":0.0,"countryName":"Indonesia"},{"code":"DFW","name":"Dallas Fort Worth Intl","cityCode":"DFW","city":"Dallas-Fort Worth","countryCode":"US","timezone":"-6","latitude":32.896828,"longitude":-97.037997,"countryName":"United States"},{"code":"DGT","name":"Dumaguete, Philippines","cityCode":"DGT","city":"Dumaguete","countryCode":"PH","timezone":"8","latitude":0.0,"longitude":0.0,"countryName":"Philippines"},{"code":"DHA","name":"Dhahran, Saudi Arabia","cityCode":"DHA","city":"Dhahran","countryCode":"SA","timezone":"3","latitude":26.265417,"longitude":50.152027,"countryName":"Saudi Arabia"},{"code":"DHM","name":"Dharamsala, India","cityCode":"DHM","city":"Kangra","countryCode":"IN","timezone":"5","latitude":0.0,"longitude":0.0,"countryName":"India"},{"code":"DHN","name":"Dothan, AL, USA","cityCode":"DHN","city":"Dothan","countryCode":"US","timezone":"-5","latitude":31.3213005,"longitude":-85.4496002,"countryName":"United States"},{"code":"DIB","name":"Dibrugarh, India","cityCode":"DIB","city":"Dibrugarh","countryCode":"IN","timezone":"5","latitude":0.0,"longitude":0.0,"countryName":"India"},{"code":"DIL","name":"Presidente Nicolau Lobato, DILI","cityCode":"DIL","city":"Dili","countryCode":"TL","latitude":0.0,"longitude":0.0,"countryName":"Timor-Leste (East Timor)"},{"code":"DIU","name":"Diu, India","cityCode":"DIU","city":"Diu","countryCode":"IN","timezone":"5","latitude":0.0,"longitude":0.0,"countryName":"India"},{"code":"DJB","name":"Sultan Thaha, Indonesia","cityCode":"DJB","city":"Jambi","countryCode":"ID","timezone":"7","latitude":-1.638017,"longitude":103.644378,"countryName":"Indonesia"},{"code":"DJE","name":"Djerba, Tunisia","cityCode":"DJE","city":"Djerba","countryCode":"TN","timezone":"1","latitude":33.875,"longitude":10.7755003,"countryName":"Tunisia"},{"code":"DJJ","name":"Sentani, Jayapura","cityCode":"DJJ","city":"Jayapura","countryCode":"ID","timezone":"9","latitude":-2.576953,"longitude":140.516372,"countryName":"Indonesia"},{"code":"DJO","name":"Daloa, Ivory Coast","cityCode":"DJO","city":"Daloa","countryCode":"CI","timezone":"0","latitude":6.792808,"longitude":-6.473189,"countryName":"Cote d'Ivoire (Ivory Coast)"},{"code":"DKI","name":"Dunk Iceland, Australia","cityCode":"DKI","city":"Dunk Island","countryCode":"AU","timezone":"10","latitude":-17.939722,"longitude":146.141944,"countryName":"Australia"},{"code":"DKR","name":"Dakar, Senegal","cityCode":"DKR","city":"Dakar","countryCode":"SN","timezone":"0","latitude":14.7397003,"longitude":-17.4902,"countryName":"Senegal"},{"code":"DLA","name":"Douala, Cameroon","cityCode":"DLA","city":"Douala","countryCode":"CM","timezone":"1","latitude":4.0060802,"longitude":9.7194796,"countryName":"Cameroon"},{"code":"DLC","name":"Zhoushuizi, China","cityCode":"DLC","city":"Dalian","countryCode":"CN","timezone":"8","latitude":38.965667,"longitude":121.5386,"countryName":"China, People's Republic of"},{"code":"DLG","name":"Dillingham, AK, USA","cityCode":"DLG","city":"Dillingham","countryCode":"US","timezone":"-8","latitude":59.0447006,"longitude":-158.5050049,"countryName":"United States"},{"code":"DLH","name":"Duluth, MN/Superior, WI, USA","cityCode":"DLH","city":"Duluth","countryCode":"US","timezone":"-5","latitude":46.8420982,"longitude":-92.1936035,"countryName":"United States"},{"code":"DLM","name":"Dalaman, Turkey","cityCode":"DLM","city":"Dalaman","countryCode":"TR","timezone":"3","latitude":36.7131004,"longitude":28.7924995,"countryName":"Turkey"},{"code":"DMB","name":"Taraz, Kazakhstan","cityCode":"DMB","city":"Dzhambul","countryCode":"KZ","timezone":"6","latitude":0.0,"longitude":0.0,"countryName":"Kazakhstan"},{"code":"DME","name":"Moscow Domododevo Airport, Russian","cityCode":"DME","city":"Moscow","countryCode":"RU","timezone":"3","latitude":55.4087982,"longitude":37.9062996,"countryName":"Russia"},{"code":"DMK","name":"Bangkok Donmueang, Thailand","cityCode":"DMK","city":"Donmueang","countryCode":"TH","latitude":13.912583,"longitude":100.60675,"countryName":"Thailand"},{"code":"DMM","name":"King Fahd International, Saudi Arabia","cityCode":"DMM","city":"Dammam","countryCode":"SA","timezone":"3","latitude":26.4712009,"longitude":49.7979012,"countryName":"Saudi Arabia"},{"code":"DMU","name":"Dimapur, India","cityCode":"DMU","city":"Dimapur","countryCode":"IN","timezone":"5","latitude":0.0,"longitude":0.0,"countryName":"India"},{"code":"DNR","name":"Dinard, France","cityCode":"DNR","city":"Dinard","countryCode":"FR","timezone":"2","latitude":48.5876999,"longitude":-2.0799601,"countryName":"France"},{"code":"DOB","name":"Dobo Airport, Dobo","cityCode":"DOB","city":"Dobo","countryCode":"ID","latitude":0.0,"longitude":0.0,"countryName":"Indonesia"},{"code":"DOH","name":"Doha Hamad International Airport, Qatar","cityCode":"DOH","city":"Doha","countryCode":"QA","timezone":"3","latitude":25.261125,"longitude":51.565056,"countryName":"Qatar"},{"code":"DPL","name":"Dipolog, Philippines","cityCode":"DPL","city":"Dipolog","countryCode":"PH","timezone":"8","latitude":0.0,"longitude":0.0,"countryName":"Philippines"},{"code":"DPO","name":"Devonport, Australia","cityCode":"DPO","city":"Devonport","countryCode":"AU","timezone":"11","latitude":-41.1697006,"longitude":146.4299927,"countryName":"Australia"},{"code":"DPS","name":"Ngurah Rai International Airport, Indonesia","cityCode":"DPS","city":"Denpasar","countryCode":"ID","timezone":"8","latitude":-8.748169,"longitude":115.167172,"countryName":"Indonesia"},{"code":"DQM","name":"Duqm International Airport, Oman","cityCode":"DQM","city":"Duqm/ Al Wusta","countryCode":"OM","timezone":"0","latitude":0.0,"longitude":0.0,"countryName":"Oman"},{"code":"DRB","name":"Derby, Australia","cityCode":"DRB","city":"Derby","countryCode":"AU","timezone":"8","latitude":-17.39,"longitude":123.68,"countryName":"Australia"},{"code":"DRO","name":"Durango, CO, USA","cityCode":"DRO","city":"Durango","countryCode":"US","timezone":"-7","latitude":37.151516,"longitude":-107.75377,"countryName":"United States"},{"code":"DRS","name":"Dresden, Germany","cityCode":"DRS","city":"Dresden","countryCode":"DE","timezone":"2","latitude":51.1328011,"longitude":13.7672005,"countryName":"Germany"},{"code":"DRV","name":"Dharavandhoo Island, Maldives","cityCode":"DRV","city":"Dharavandhoo Island","countryCode":"MV","timezone":"5","latitude":0.0,"longitude":0.0,"countryName":"Maldives"},{"code":"DRW","name":"Darwin, Australia","cityCode":"DRW","city":"Darwin","countryCode":"AU","timezone":"9","latitude":-12.4146996,"longitude":130.8769989,"countryName":"Australia"},{"code":"DSK","name":"Dera Ismail Khan, Pakistan","cityCode":"DSK","city":"Dera Ismael Khan","countryCode":"PK","timezone":"5","latitude":31.9094009,"longitude":70.8965988,"countryName":"Pakistan"},{"code":"DSM","name":"Des Moines, IA, USA","cityCode":"DSM","city":"Des Moines","countryCode":"US","timezone":"-5","latitude":41.5340004,"longitude":-93.6631012,"countryName":"United States"},{"code":"DTB","name":"Silangit, Indonesia","cityCode":"DTB","city":"Siborong-Borong","countryCode":"ID","timezone":"7","latitude":2.2597222,"longitude":98.9952778,"countryName":"Indonesia"},{"code":"DTM","name":"Dortmund, Germany","cityCode":"DTM","city":"Dortmund","countryCode":"DE","timezone":"2","latitude":51.5182991,"longitude":7.6122398,"countryName":"Germany"},{"code":"DTW","name":"Detroit Metropolitan Wayne County Airport, MI, USA","cityCode":"DTW","city":"Detroit","countryCode":"US","timezone":"-4","latitude":42.2123985,"longitude":-83.3534012,"countryName":"United States"},{"code":"DUB","name":"Dublin, Ireland","cityCode":"DUB","city":"Dublin","countryCode":"IE","timezone":"1","latitude":53.421299,"longitude":-6.2700701,"countryName":"Ireland"},{"code":"DUD","name":"Dunedin, New Zealand","cityCode":"DUD","city":"Dunedin","countryCode":"NZ","timezone":"13","latitude":-45.9281006,"longitude":170.197998,"countryName":"New Zealand"},{"code":"DUJ","name":"Dubois, PA, USA","cityCode":"DUJ","city":"Du Bois","countryCode":"US","timezone":"-4","latitude":41.178299,"longitude":-78.8986969,"countryName":"United States"},{"code":"DUM","name":"Pinang Kampai, Indonesia","cityCode":"DUM","city":"Dumai","countryCode":"ID","latitude":0.0,"longitude":0.0,"countryName":"Indonesia"},{"code":"DUR","name":"Durban, South Africa","cityCode":"DUR","city":"Durban","countryCode":"ZA","timezone":"2","latitude":-29.6144444,"longitude":31.1197222,"countryName":"South Africa"},{"code":"DUS","name":"Dusseldorf, Germany","cityCode":"DUS","city":"Duesseldorf","countryCode":"DE","timezone":"1","latitude":51.289453,"longitude":6.766775,"countryName":"Germany"},{"code":"DUT","name":"Dutch Harbor, AK, USA","cityCode":"DUT","city":"Unalaska","countryCode":"US","timezone":"-8","latitude":53.9001007,"longitude":-166.5440063,"countryName":"United States"},{"code":"DVL","name":"Devils Lake, ND, USA","cityCode":"DVL","city":"Devils Lake","countryCode":"US","timezone":"-6","latitude":48.114444,"longitude":-98.908611,"countryName":"United States"},{"code":"DVO","name":"Davao, Philippines","cityCode":"DVO","city":"Davao","countryCode":"PH","timezone":"8","latitude":0.0,"longitude":0.0,"countryName":"Philippines"},{"code":"DWD","name":"Dawadmi, Saudi Arabia","cityCode":"DWD","city":"Dawadmi","countryCode":"SA","timezone":"3","latitude":0.0,"longitude":0.0,"countryName":"Saudi Arabia"},{"code":"DXB","name":"Dubai Intl, United Arab Emirates","cityCode":"DXB","city":"Dubai","countryCode":"AE","latitude":25.252778,"longitude":55.364444,"countryName":"United Arab Emirates"},{"code":"DYU","name":"Dushanbe (Duschanbe), Tadschikistan","cityCode":"DYU","city":"Dushanbe","countryCode":"TJ","timezone":"5","latitude":38.5433006,"longitude":68.824997,"countryName":"Tajikistan"},{"code":"DZA","name":"Dzaoudzi, Mayotte","cityCode":"DZA","city":"Dzaoudzi","countryCode":"YT","timezone":"3","latitude":-12.8046999,"longitude":45.2811012,"countryName":"Mayotte"},{"code":"DZN","name":"Zhezkazgan, Kazakhstan","cityCode":"DZN","city":"Zhezkazgan","countryCode":"KZ","timezone":"6","latitude":0.0,"longitude":0.0,"countryName":"Kazakhstan"},{"code":"EAM","name":"Nejran, Saudi Arabia","cityCode":"EAM","city":"Nejran","countryCode":"SA","timezone":"3","latitude":0.0,"longitude":0.0,"countryName":"Saudi Arabia"},{"code":"EAP","name":"Basel/Mulhouse, Switzerland/France","cityCode":"EAP","city":"Mulhouse","countryCode":"FR","timezone":"1","latitude":47.589583,"longitude":7.529914,"countryName":"France"},{"code":"EAS","name":"San Sebastian, Spain","cityCode":"EAS","city":"San Sebastian","countryCode":"ES","timezone":"2","latitude":43.3564987,"longitude":-1.79061,"countryName":"Spain"},{"code":"EAT","name":"Wenatchee, WA, USA","cityCode":"EAT","city":"Wenatchee","countryCode":"US","timezone":"-8","latitude":47.398,"longitude":-120.206,"countryName":"United States"},{"code":"EAU","name":"Eau Clarie, WI, USA","cityCode":"EAU","city":"Eau Claire","countryCode":"US","timezone":"-5","latitude":44.865799,"longitude":-91.4842987,"countryName":"United States"},{"code":"EBB","name":"Entebbe, Uganda","cityCode":"EBB","city":"Entebbe","countryCode":"UG","timezone":"3","latitude":0.042386,"longitude":32.4435005,"countryName":"Uganda"},{"code":"EBJ","name":"Esbjerg, Denmark","cityCode":"EBJ","city":"Esbjerg","countryCode":"DK","timezone":"2","latitude":55.5259018,"longitude":8.5534,"countryName":"Denmark"},{"code":"EBL","name":"Erbil, Iraq","cityCode":"EBL","city":"Erbil","countryCode":"IQ","timezone":"3","latitude":0.0,"longitude":0.0,"countryName":"Iraq"},{"code":"EBU","name":"St. Etienne, France","cityCode":"EBU","city":"St-Etienne","countryCode":"FR","timezone":"2","latitude":45.5405998,"longitude":4.2963901,"countryName":"France"},{"code":"EDI","name":"Edinburgh, United Kingdom","cityCode":"EDI","city":"Edinburgh","countryCode":"GB","timezone":"1","latitude":55.9500008,"longitude":-3.3724999,"countryName":"United Kingdom"},{"code":"EDR","name":"Emerald, Australia","cityCode":"EDR","city":"Pormpuraaw","countryCode":"AU","timezone":"10","latitude":-14.896451,"longitude":141.60908,"countryName":"Australia"},{"code":"EGE","name":"Vail, CO, USA","cityCode":"EGE","city":"Vail","countryCode":"US","timezone":"-6","latitude":39.642601,"longitude":-106.9179993,"countryName":"United States"},{"code":"EGS","name":"Egilsstadir, Iceland","cityCode":"EGS","city":"Egilsstadir","countryCode":"IS","timezone":"0","latitude":65.2833023,"longitude":-14.4013996,"countryName":"Iceland"},{"code":"EIN","name":"Eindhoven, Netherlands","cityCode":"EIN","city":"Eindhoven","countryCode":"NL","timezone":"2","latitude":51.4501,"longitude":5.3745298,"countryName":"Netherlands"},{"code":"EIS","name":"Beef Island, Virgin Islands ( British )","cityCode":"EIS","city":"Tortola","countryCode":"VG","timezone":"-4","latitude":18.4447994,"longitude":-64.5429993,"countryName":"British Virgin Islands"},{"code":"EJH","name":"Wedjh, Saudi Arabia","cityCode":"EJH","city":"Wejh","countryCode":"SA","timezone":"3","latitude":0.0,"longitude":0.0,"countryName":"Saudi Arabia"},{"code":"EKI","name":"Elkhart, IN, USA","cityCode":"EKI","city":"Elkhart","countryCode":"US","timezone":"-5","latitude":41.719444,"longitude":-86.003333,"countryName":"United States"},{"code":"EKO","name":"Elko, NV, USA","cityCode":"EKO","city":"Elko","countryCode":"US","timezone":"-7","latitude":40.8249016,"longitude":-115.7919998,"countryName":"United States"},{"code":"ELH","name":"North Eleuthera, Bahamas","cityCode":"ELH","city":"North Eleuthera","countryCode":"BS","timezone":"-4","latitude":25.4748993,"longitude":-76.6835022,"countryName":"Bahamas, The"},{"code":"ELL","name":"Ellisras, South Africa","cityCode":"ELL","city":"Lephalale","countryCode":"ZA","timezone":"1","latitude":-23.666667,"longitude":27.75,"countryName":"South Africa"},{"code":"ELM","name":"Elmira, NY, USA","cityCode":"ELM","city":"Elmira","countryCode":"US","timezone":"-4","latitude":42.1599007,"longitude":-76.8916016,"countryName":"United States"},{"code":"ELP","name":"El Paso, TX, USA","cityCode":"ELP","city":"El Paso","countryCode":"US","timezone":"-6","latitude":31.8071995,"longitude":-106.3779984,"countryName":"United States"},{"code":"ELQ","name":"Gassim, Saudi Arabia","cityCode":"ELQ","city":"Gassim","countryCode":"SA","timezone":"3","latitude":0.0,"longitude":0.0,"countryName":"Saudi Arabia"},{"code":"ELS","name":"East London, South Africa","cityCode":"ELS","city":"East London","countryCode":"ZA","timezone":"2","latitude":-33.0355988,"longitude":27.8258991,"countryName":"South Africa"},{"code":"ELY","name":"Ely, NV, USA","cityCode":"ELY","city":"Ely","countryCode":"US","timezone":"-8","latitude":39.299722,"longitude":-114.841944,"countryName":"United States"},{"code":"EMA","name":"Derby (East Midlands), United Kingdom","cityCode":"EMA","city":"East Midlands","countryCode":"GB","timezone":"1","latitude":52.8311005,"longitude":-1.32806,"countryName":"United Kingdom"},{"code":"EMD","name":"Emerald, Australia","cityCode":"EMD","city":"Emerald","countryCode":"AU","timezone":"10","latitude":-23.5674992,"longitude":148.1790009,"countryName":"Australia"},{"code":"ENA","name":"Kenai, AK, USA","cityCode":"ENA","city":"Kenai","countryCode":"US","timezone":"-9","latitude":60.573111,"longitude":-151.245,"countryName":"United States"},{"code":"ENC","name":"Nancy, France","cityCode":"ENC","city":"Nancy","countryCode":"FR","timezone":"1","latitude":48.692069,"longitude":6.230458,"countryName":"France"},{"code":"ENE","name":"H Hasan Aroeboesman, Indonesia","cityCode":"ENE","city":"Ende","countryCode":"ID","timezone":"8","latitude":-8.849294,"longitude":121.660644,"countryName":"Indonesia"},{"code":"ENF","name":"Enontekioe, Finland","cityCode":"ENF","city":"Enontekio","countryCode":"FI","timezone":"3","latitude":68.3626022,"longitude":23.4242992,"countryName":"Finland"},{"code":"ENI","name":"El Nido, Philippines","cityCode":"ENI","city":"El Nido","countryCode":"PH","timezone":"8","latitude":0.0,"longitude":0.0,"countryName":"Philippines"},{"code":"EPR","name":"Esperance, Australia","cityCode":"EPR","city":"Esperance","countryCode":"AU","timezone":"8","latitude":-33.684399,"longitude":121.822998,"countryName":"Australia"},{"code":"ERF","name":"Erfurt, Germany","cityCode":"ERF","city":"Erfurt","countryCode":"DE","timezone":"2","latitude":50.9798012,"longitude":10.9581003,"countryName":"Germany"},{"code":"ERI","name":"Erie, PA, USA","cityCode":"ERI","city":"Erie","countryCode":"US","timezone":"-4","latitude":42.083127,"longitude":-80.1738668,"countryName":"United States"},{"code":"ERS","name":"Windhoek   Eros, Namibia","cityCode":"ERS","city":"Windhoek","countryCode":"NA","timezone":"2","latitude":-22.6121998,"longitude":17.0804005,"countryName":"Namibia"},{"code":"ESC","name":"Escabana, MI, USA","cityCode":"ESC","city":"Escanaba","countryCode":"US","timezone":"-5","latitude":45.722778,"longitude":-87.093611,"countryName":"United States"},{"code":"ESF","name":"Alexandria, La, USA","cityCode":"ESF","city":"Alexandria","countryCode":"US","timezone":"-6","latitude":31.394903,"longitude":-92.295772,"countryName":"United States"},{"code":"ETH","name":"Elat, Israel","cityCode":"ETH","city":"Elat","countryCode":"IL","timezone":"3","latitude":29.5613003,"longitude":34.9600983,"countryName":"Israel"},{"code":"EUG","name":"Eugene, OR, USA","cityCode":"EUG","city":"Eugene","countryCode":"US","timezone":"-7","latitude":44.1245995,"longitude":-123.211998,"countryName":"United States"},{"code":"EVE","name":"Evenes, Norway","cityCode":"EVE","city":"Harstad/Narvik","countryCode":"NO","timezone":"2","latitude":68.4913025,"longitude":16.6781006,"countryName":"Norway"},{"code":"EVN","name":"Zvartnots International Airport, Armenia","cityCode":"EVN","city":"Yerevan","countryCode":"AM","timezone":"4","latitude":40.1473007,"longitude":44.3959007,"countryName":"Armenia"},{"code":"EVV","name":"Evansville, IN, USA","cityCode":"EVV","city":"Evansville","countryCode":"US","timezone":"-5","latitude":38.0369988,"longitude":-87.532402,"countryName":"United States"},{"code":"EWN","name":"New Bern, NC, USA","cityCode":"EWN","city":"New Bern","countryCode":"US","timezone":"-4","latitude":35.0730019,"longitude":-77.0429001,"countryName":"United States"},{"code":"EWR","name":"New York   Newark, NJ, USA","cityCode":"EWR","city":"Newark","countryCode":"US","timezone":"-4","latitude":40.6925011,"longitude":-74.1687012,"countryName":"United States"},{"code":"EYW","name":"Key West, FL, USA","cityCode":"EYW","city":"Key West","countryCode":"US","timezone":"-4","latitude":24.5561009,"longitude":-81.7595978,"countryName":"United States"},{"code":"EZE","name":"Buenos Aires Ministro Pistarin, Argentina","cityCode":"EZE","city":"Buenos Aires","countryCode":"AR","timezone":"-3","latitude":-34.8222,"longitude":-58.5358,"countryName":"Argentina"},{"code":"FAE","name":"Faroer, Denmark","cityCode":"FAE","city":"Vagar","countryCode":"FO","timezone":"1","latitude":62.0635986,"longitude":-7.2772198,"countryName":"Faroe Islands"},{"code":"FAH","name":"Farah, Afghanistan","cityCode":"FAH","city":"Farah","countryCode":"AF","timezone":"4","latitude":0.0,"longitude":0.0,"countryName":"Afghanistan"},{"code":"FAI","name":"Fairbanks, AK, USA","cityCode":"FAI","city":"Fairbanks","countryCode":"US","timezone":"-8","latitude":64.8151016,"longitude":-147.8560028,"countryName":"United States"},{"code":"FAO","name":"Faro, Portugal","cityCode":"FAO","city":"Faro","countryCode":"PT","timezone":"1","latitude":37.0144005,"longitude":-7.96591,"countryName":"Portugal"},{"code":"FAR","name":"Fargo, ND, MN, USA","cityCode":"FAR","city":"Fargo","countryCode":"US","timezone":"-5","latitude":46.9207001,"longitude":-96.8158035,"countryName":"United States"},{"code":"FAT","name":"Fresno, CA, USA","cityCode":"FAT","city":"Fresno","countryCode":"US","timezone":"-7","latitude":36.7761993,"longitude":-119.7180023,"countryName":"United States"},{"code":"FAY","name":"Fayetteville/Ft. Bragg, NC, USA","cityCode":"FAY","city":"Fayetteville","countryCode":"US","timezone":"-4","latitude":34.9911995,"longitude":-78.8803024,"countryName":"United States"},{"code":"FBM","name":"Lumbumbashi, Congo Demrocatic Republic","cityCode":"FBM","city":"Lubumashi","countryCode":"CD","timezone":"2","latitude":-11.5913,"longitude":27.5308991,"countryName":"Congo, (Congo Â Kinshasa)"},{"code":"FBU","name":"Oslo Fornebu, Norway","cityCode":"FBU","city":"Oslo","countryCode":"NO","timezone":"1","latitude":59.883333,"longitude":10.616667,"countryName":"Norway"},{"code":"FCA","name":"Kalispell, MT, USA","cityCode":"FCA","city":"Kalispell","countryCode":"US","timezone":"-6","latitude":48.3105011,"longitude":-114.2559967,"countryName":"United States"},{"code":"FCO","name":"Fiumicino, Italy","cityCode":"FCO","city":"Rome","countryCode":"IT","timezone":"1","latitude":41.804475,"longitude":12.250797,"countryName":"Italy"},{"code":"FDF","name":"Fort de France, Martinique","cityCode":"FDF","city":"Fort-de-france","countryCode":"MQ","timezone":"-4","latitude":14.5909996,"longitude":-61.0032005,"countryName":"Martinique"},{"code":"FDH","name":"Friedrichshafen, Germany","cityCode":"FDH","city":"Friedrichshafen","countryCode":"DE","timezone":"2","latitude":47.671299,"longitude":9.5114899,"countryName":"Germany"},{"code":"FEZ","name":"Fes, Morocco","cityCode":"FEZ","city":"Fes","countryCode":"MA","timezone":"1","latitude":33.9272995,"longitude":-4.9779601,"countryName":"Morocco"},{"code":"FHU","name":"Fort Huachuca/Sierra Vista, AZ, USA","cityCode":"FHU","city":"Fort Huachuca","countryCode":"US","timezone":"-7","latitude":31.5884991,"longitude":-110.3440018,"countryName":"United States"},